SALE TYPE,SOLD DATE,PROPERTY TYPE,ADDRESS,CITY,STATE,ZIP,PRICE,BEDS,BATHS,LOCATION,SQUARE FEET,LOT SIZE,YEAR BUILT,DAYS ON MARKET,$/SQUARE FEET,HOA/MONTH,STATUS,NEXT OPEN HOUSE START TIME,NEXT OPEN HOUSE END TIME,URL (SEE http://www.redfin.com/buy-a-home/comparative-market-analysis FOR INFO ON PRICING),SOURCE,MLS#,FAVORITE,INTERESTED,LATITUDE,LONGITUDE
MLS Listing,,Single Family Residential,11612 Leesville Rd,Raleigh,NC,27613,374900,6,4.0,King Lar,2783,17859,2010,16,135,8,Active,,,http://www.redfin.com/NC/Raleigh/11612-Leesville-Rd-27613/home/41363523,TMLS,2187327,N,Y,35.919692,-78.743769
MLS Listing,,Single Family Residential,6500 Tealbriar Dr,Raleigh,NC,27615,279900,3,3.0,Tealbriar,1568,9147,1988,1,179,27,Active,,,http://www.redfin.com/NC/Raleigh/6500-Tealbriar-Dr-27615/home/41158239,TMLS,2191255,N,Y,35.869097,-78.6108126
MLS Listing,,Single Family Residential,3534 Cashew Dr,Raleigh,NC,27616,315000,5,3.0,Massey Preserve,3035,10541,2015,1,104,50,Active,,,http://www.redfin.com/NC/Raleigh/3534-Cashew-Dr-27616/home/101690246,TMLS,2191156,N,Y,35.8675875,-78.5220036
MLS Listing,,Single Family Residential,8605 Vanburgh Ct,Raleigh,NC,27615,275000,4,3.0,Windsor Forest,2156,10018,1991,1,128,15,Active,,,http://www.redfin.com/NC/Raleigh/8605-Vanburgh-Ct-27615/home/41184211,TMLS,2191118,N,Y,35.8967472,-78.5774629
MLS Listing,,Single Family Residential,11808 N Exeter Way,Raleigh,NC,27613,255000,3,3.0,The Glen,1568,8712,1987,1,163,19,Active,,,http://www.redfin.com/NC/Raleigh/11808-N-Exeter-Way-27613/home/41169925,TMLS,2191095,N,Y,35.9246676,-78.7480758
MLS Listing,,Single Family Residential,6701 Pointe Vista Cir,Raleigh,NC,27615,372000,3,2.0,LaCrosse Pointe,2233,7405,1997,1,167,24,Active,,,http://www.redfin.com/NC/Raleigh/6701-Pointe-Vista-Cir-27615/home/41342602,TMLS,2191087,N,Y,35.8708121,-78.6336012
MLS Listing,,Single Family Residential,512 Ellis Ct,Raleigh,NC,27603,290000,3,2.0,Caraleigh,1152,6534,1993,1,252,,Active,,,http://www.redfin.com/NC/Raleigh/512-Ellis-Ct-27603/home/41173715,TMLS,2191077,N,Y,35.763214,-78.6530433
MLS Listing,,Single Family Residential,12228 Breton Ln,Raleigh,NC,27613,339900,3,3.0,Harrington Grove,2263,10018,1996,1,150,19,Active,,,http://www.redfin.com/NC/Raleigh/12228-Breton-Ln-27613/home/41341876,TMLS,2191042,N,Y,35.9294243,-78.7405136
MLS Listing,,Single Family Residential,5217 Blakeley Ln,Raleigh,NC,27613,275000,3,3.0,Harrington Grove,1595,6098,1993,1,172,30,Active,,,http://www.redfin.com/NC/Raleigh/5217-Blakeley-Ln-27613/home/41338323,TMLS,2190996,N,Y,35.9288009,-78.7424731
MLS Listing,,Single Family Residential,3905 Yew Cir,Raleigh,NC,27612,360000,5,3.0,Laurel Hills,2285,22651,1964,1,158,,Active,May-13-2018 03:00 PM,May-13-2018 05:00 PM,http://www.redfin.com/NC/Raleigh/3905-Yew-Cir-27612/home/41074662,TMLS,2190992,N,Y,35.8361643,-78.7049701
MLS Listing,,Single Family Residential,7604 Birchmoor Way,Raleigh,NC,27616,300000,4,5.0,Bryson Village,2841,9583,2013,1,106,45,Active,,,http://www.redfin.com/NC/Raleigh/7604-Birchmoor-Way-27616/home/59277107,TMLS,2190979,N,Y,35.8383385,-78.5081118
MLS Listing,,Single Family Residential,5412 Mapleridge Rd,Raleigh,NC,27609,350000,4,3.0,Cedar Hills,2700,11325,1973,1,130,,Active,,,http://www.redfin.com/NC/Raleigh/5412-Mapleridge-Rd-27609/home/41127552,TMLS,2190966,N,Y,35.856277,-78.626876
MLS Listing,,Single Family Residential,8701 Stonegate Dr,Raleigh,NC,27615,350000,4,3.0,Muirfield,2800,46609,1984,1,125,30,Active,,,http://www.redfin.com/NC/Raleigh/8701-Stonegate-Dr-27615/home/41138814,TMLS,2190918,N,Y,35.9004721,-78.6075067
MLS Listing,,Single Family Residential,11613 Strickland Rd,Raleigh,NC,27613-1242,289900,3,2.0,Wildwood Springs,1680,26136,1963,1,173,,Active,,,http://www.redfin.com/NC/Raleigh/11613-Strickland-Rd-27613/home/41068319,TMLS,2190912,N,Y,35.9048486,-78.6908979
MLS Listing,,Single Family Residential,2421 Barton Oaks Dr,Raleigh,NC,27614,328000,4,3.0,Wakefield,2500,6969,2003,1,131,46,Active,,,http://www.redfin.com/NC/Raleigh/2421-Barton-Oaks-Dr-27614/home/41256759,TMLS,2190887,N,Y,35.94153,-78.5679261
MLS Listing,,Single Family Residential,4540 Raleigh Dalton Rd,Dallas,TX,75227,250000,3,2.5,Chariot Village,1797,8712,2018,2,139,,Active,,,http://www.redfin.com/TX/Dallas/4540-Raleigh-Dalton-Rd-75227/home/145605746,NTREIS,13840017,N,Y,35.913981,-78.645986
MLS Listing,,Single Family Residential,3308 Serendipity Dr,Raleigh,NC,27616-8690,324900,5,4.0,Mitchell Mill,3100,8276,2011,2,105,28,Active,May-19-2018 01:00 PM,May-19-2018 04:00 PM,http://www.redfin.com/NC/Raleigh/3308-Serendipity-Dr-27616/home/41276360,TMLS,2190806,N,Y,35.8790177,-78.5150357
MLS Listing,,Single Family Residential,5912 Royal Coach Ct,Raleigh,NC,27612,279900,3,2.0,Westborough,1802,12196,2003,2,155,,Active,,,http://www.redfin.com/NC/Raleigh/5912-Royal-Coach-Ct-27612/home/41279865,TMLS,2190776,N,Y,35.8631387,-78.725707
MLS Listing,,Single Family Residential,6905 Englehardt Dr,Raleigh,NC,27617,319900,3,3.0,Woodlawn,1962,7840,1998,2,163,35,Active,,,http://www.redfin.com/NC/Raleigh/6905-Englehardt-Dr-27617/home/41265656,TMLS,2190723,N,Y,35.912631,-78.7491041
MLS Listing,,Single Family Residential,8404 Whisper Ridge Pl,Raleigh,NC,27613,300000,3,3.0,Cornerstone Park,2002,5227,2003,2,150,33,Active,,,http://www.redfin.com/NC/Raleigh/8404-Whisper-Ridge-Pl-27613/home/41281430,TMLS,2190721,N,Y,35.8904835,-78.7335609
MLS Listing,,Single Family Residential,6710 Brookmeade Pl,Raleigh,NC,27612-6803,339900,3,3.0,Hidden Valley,2144,35719,1972,2,159,,Active,,,http://www.redfin.com/NC/Raleigh/6710-Brookmeade-Pl-27612/home/41096302,TMLS,2190704,N,Y,35.8725829,-78.6675382
MLS Listing,,Single Family Residential,12504 Honeychurch St,Raleigh,NC,27614,310000,4,3.0,Cedar Grove,2634,7840,2006,2,118,23,Active,,,http://www.redfin.com/NC/Raleigh/12504-Honeychurch-St-27614/home/41313365,TMLS,2190678,N,Y,35.9666181,-78.556392
MLS Listing,,Single Family Residential,2707 Kinsley Pl,Raleigh,NC,27616,329900,4,3.0,Highland Creek,2908,10454,2007,2,113,56,Active,,,http://www.redfin.com/NC/Raleigh/2707-Kinsley-Pl-27616/home/41320469,TMLS,2190611,N,Y,35.8996975,-78.5105752
MLS Listing,,Single Family Residential,7801 Audubon Dr,Raleigh,NC,27615,350000,4,3.0,North Ridge,2220,13503,1971,2,158,,Active,,,http://www.redfin.com/NC/Raleigh/7801-Audubon-Dr-27615/home/41079752,TMLS,2190586,N,Y,35.8908866,-78.6183501
MLS Listing,,Single Family Residential,109 Cupp Ct,Raleigh,NC,27603,260000,3,3.0,Eagle Ridge,2338,5662,2005,2,111,42,Active,,,http://www.redfin.com/NC/Raleigh/109-Cupp-Ct-27603/home/41292291,TMLS,2190580,N,Y,35.6680574,-78.6630767
MLS Listing,,Single Family Residential,7012 Saddle Springs Ct,Raleigh,NC,27615,372000,4,3.0,North Ridge,2400,9583,1988,2,155,,Active,,,http://www.redfin.com/NC/Raleigh/7012-Saddle-Springs-Ct-27615/home/41173339,TMLS,2190577,N,Y,35.8749227,-78.5973931
MLS Listing,,Single Family Residential,1112 Shadyside Dr,Raleigh,NC,27612,250000,3,2.0,Hidden Valley,1630,18295,1974,3,153,,Active,,,http://www.redfin.com/NC/Raleigh/1112-Shadyside-Dr-27612/home/41118758,TMLS,2190546,N,Y,35.8679249,-78.6604641
MLS Listing,,Single Family Residential,4421 Riverport Rd,Raleigh,NC,27616,286132,3,3.0,Willow Lake,2107,11325,2001,3,136,,Active,,,http://www.redfin.com/NC/Raleigh/4421-Riverport-Rd-27616/home/41251829,TMLS,2190527,N,Y,35.8688021,-78.4988791
MLS Listing,,Single Family Residential,2924 Deep Glen Ct,Raleigh,NC,27603,267500,3,3.0,Stephens Pointe,2319,26136,2006,3,115,8,Active,,,http://www.redfin.com/NC/Raleigh/2924-Deep-Glen-Ct-27603/home/41298594,TMLS,2190513,N,Y,35.6251335,-78.6834163
MLS Listing,,Single Family Residential,1621 October Rd,Raleigh,NC,27614,324900,4,3.0,Falls River Enclave,2521,7840,2003,3,129,13,Active,,,http://www.redfin.com/NC/Raleigh/1621-October-Rd-27614/home/41275899,TMLS,2190386,N,Y,35.9244684,-78.5844265
MLS Listing,,Single Family Residential,8215 Gresham Trace Ln,Raleigh,NC,27615-8058,286900,3,3.0,Gresham Trace,2030,7840,1999,3,141,17,Active,,,http://www.redfin.com/NC/Raleigh/8215-Gresham-Trace-Ln-27615/home/41228092,TMLS,2190370,N,Y,35.8883333,-78.5940061
MLS Listing,,Single Family Residential,3850 Cumberland Pond Rd,Raleigh,NC,27606-4867,370000,4,3.0,Crossings at Tryon,2181,4356,2013,4,170,38,Active,,,http://www.redfin.com/NC/Raleigh/3850-Cumberland-Pond-Rd-27606/home/59277373,TMLS,2190317,N,Y,35.7471032,-78.7041506
MLS Listing,,Single Family Residential,2225 Flowing Dr,Raleigh,NC,27610,250000,3,3.0,EdgeWtr,2630,7405,2007,4,95,35,Active,,,http://www.redfin.com/NC/Raleigh/2225-Flowing-Dr-27610/home/41299639,TMLS,2190241,N,Y,35.8018475,-78.549249
MLS Listing,,Single Family Residential,0 Hill St,Raleigh,NC,27610,399000,3,3.0,College Park,1656,4356,2018,4,241,,Active,,,http://www.redfin.com/NC/Raleigh/0-Hill-St-27610/home/44523457,TMLS,2190240,N,Y,35.7800885,-78.6176556
MLS Listing,,Single Family Residential,6906 Wexford Woods Trl,Raleigh,NC,27613,389000,4,5.0,Wexford,3423,111165,2004,4,114,15,Active,,,http://www.redfin.com/NC/Raleigh/6906-Wexford-Woods-Trl-27613/home/43592055,TMLS,2190199,N,Y,35.9647379,-78.726812
MLS Listing,,Single Family Residential,5830 Bayberry Ln,Raleigh,NC,27612-2881,400000,3,3.0,Hedgemoor,2777,14374,1980,5,144,,Active,,,http://www.redfin.com/NC/Raleigh/5830-Bayberry-Ln-27612/home/41138949,TMLS,2190074,N,Y,35.8616532,-78.6746872
MLS Listing,,Single Family Residential,8824 Miranda Dr,Raleigh,NC,27617,300000,3,3.0,Dominion Park,1972,7840,1997,5,152,43,Active,,,http://www.redfin.com/NC/Raleigh/8824-Miranda-Dr-27617/home/41207001,TMLS,2190071,N,Y,35.9132711,-78.7434362
MLS Listing,,Single Family Residential,216 Northclift Dr,Raleigh,NC,27609,309900,3,2.0,Northclift,1948,11325,1968,5,159,,Active,May-13-2018 01:00 PM,May-13-2018 03:00 PM,http://www.redfin.com/NC/Raleigh/216-Northclift-Dr-27609/home/41119097,TMLS,2190055,N,Y,35.8624599,-78.6398959
MLS Listing,,Single Family Residential,3421 Serendipity Dr,Raleigh,NC,27616,279900,4,3.0,Mitchell Mill,2707,11325,2003,5,103,28,Active,,,http://www.redfin.com/NC/Raleigh/3421-Serendipity-Dr-27616/home/41275856,TMLS,2189926,N,Y,35.8781294,-78.5141037
MLS Listing,,Single Family Residential,1212 Rolling Farm Dr,Raleigh,NC,27603,354000,3,3.0,Old Stage Place,2618,25700,2001,5,135,23,Active,,,http://www.redfin.com/NC/Raleigh/1212-Rolling-Farm-Dr-27603/home/41251302,TMLS,2189912,N,Y,35.6505457,-78.6757507
MLS Listing,,Single Family Residential,10008 Quillstone Ct,Raleigh,NC,27613,360000,3,3.0,Still Wtr Landing,2197,12196,1994,5,164,8,Active,May-13-2018 01:00 PM,May-13-2018 04:00 PM,http://www.redfin.com/NC/Raleigh/10008-Quillstone-Ct-27613/home/41182613,TMLS,2189855,N,Y,35.9146891,-78.6972557
MLS Listing,,Single Family Residential,2220 Spruce Shadows Ln,Raleigh,NC,27614-6917,299900,4,3.0,Wakefield,2327,7840,2001,6,129,50,Active,,,http://www.redfin.com/NC/Raleigh/2220-Spruce-Shadows-Ln-27614/home/41262130,TMLS,2189848,N,Y,35.9382236,-78.5667284
MLS Listing,,Single Family Residential,2904 Sago Palm Ct,Raleigh,NC,27616,379900,3,3.0,Wake,2382,38637,2018,6,159,,Active,,,http://www.redfin.com/NC/Raleigh/2904-Palm-Ct-27607/home/145577645,TMLS,2189792,N,Y,35.8585526518129,-78.4881949424744
MLS Listing,,Single Family Residential,4268 Saubranch Hill St,Raleigh,NC,27616,309000,4,3.0,Belmont,2460,8276,2015,8,126,78,Active,,,http://www.redfin.com/NC/Raleigh/4268-Saubranch-Hill-St-27616/home/49784739,TMLS,2189582,N,Y,35.8369244,-78.5527984
MLS Listing,,Single Family Residential,3309 Manor Ridge Dr,Raleigh,NC,27603,275000,3,3.0,Lakewood Estates,2733,66211,1983,8,101,,Active,,,http://www.redfin.com/NC/Raleigh/3309-Manor-Ridge-Dr-27603/home/41135726,TMLS,2189577,N,Y,35.6858719,-78.6975702
MLS Listing,,Single Family Residential,9608 Leslieshire Dr,Raleigh,NC,27615,289900,4,3.0,Windsor Forest,2139,11761,1993,8,136,30,Active,,,http://www.redfin.com/NC/Raleigh/9608-Leslieshire-Dr-27615/home/41185714,TMLS,2189524,N,Y,35.8971652,-78.5756887
MLS Listing,,Single Family Residential,12104 Warwickshire Park,Raleigh,NC,27613,367500,4,3.0,Hawthorne,2051,15246,1989,8,179,97,Active,,,http://www.redfin.com/NC/Raleigh/12104-Warwickshire-Park-27613/home/41156206,TMLS,2189503,N,Y,35.9368298,-78.7201064
MLS Listing,,Single Family Residential,201 Mccleary Ct,Cary,NC,27513,365000,4,3.0,Braeloch,2513,8276,1995,8,145,13,Active,,,http://www.redfin.com/NC/CARY/201-MCCLEARY-CT-27513/home/41258370,TMLS,2189474,N,Y,35.798824,-78.7607
MLS Listing,,Single Family Residential,3800 Bland Rd,Raleigh,NC,27609,395000,3,2.0,Greenwood Farms,1868,13895,1966,8,211,,Active,,,http://www.redfin.com/NC/Raleigh/3800-Bland-Rd-27609/home/41087467,TMLS,2189301,N,Y,35.8344095,-78.611343
MLS Listing,,Single Family Residential,5105 Laurie Dr,Raleigh,NC,27606,375000,3,3.0,Penn Shaw Pines,2362,42688,1979,9,159,,Active,,,http://www.redfin.com/NC/Raleigh/5105-Laurie-Dr-27606/home/41126834,TMLS,2189243,N,Y,35.7198835,-78.7249247
MLS Listing,,Single Family Residential,2449 Milburnie Rd,Raleigh,NC,27610,315000,3,3.0,Lockwood,1568,11325,1963,9,201,,Active,,,http://www.redfin.com/NC/Raleigh/2449-Milburnie-Rd-27610/home/41095065,TMLS,2189207,N,Y,35.7885937,-78.5996825
MLS Listing,,Single Family Residential,239 Mediate Dr,Raleigh,NC,27603,289900,3,3.0,Eagle Ridge,2779,15246,2006,9,104,42,Active,,,http://www.redfin.com/NC/Raleigh/239-Mediate-Dr-27603/home/41268771,TMLS,2189182,N,Y,35.6668065,-78.6632667
MLS Listing,,Single Family Residential,2416 Deanwood Dr,Raleigh,NC,27615,289000,4,3.0,Durant Trace,1773,14810,1996,9,163,11,Active,,,http://www.redfin.com/NC/Raleigh/2416-Deanwood-Dr-27615/home/41207842,TMLS,2189181,N,Y,35.8996366,-78.5983965
MLS Listing,,Single Family Residential,1104 Southern Escape Way,Raleigh,NC,27603,350000,4,3.0,Southern Meadows,2947,24829,2005,9,119,30,Active,,,http://www.redfin.com/NC/Raleigh/1104-Southern-Escape-Way-27603/home/41291396,TMLS,2189107,N,Y,35.6005993,-78.643974
MLS Listing,,Single Family Residential,5101 Centerbud Pl,Raleigh,NC,27606,399900,3,3.0,Wake,2050,6098,2018,9,195,45,Active,,,http://www.redfin.com/NC/RALEIGH/5101-CENTERBUD-PL-27606/home/143715667,TMLS,2189020,N,Y,35.78559,-78.7098
MLS Listing,,Single Family Residential,5201 Turning Branch Ln,Raleigh,NC,27603,299900,3,3.0,Stephens Pointe,2548,31363,2005,10,118,8,Active,,,http://www.redfin.com/NC/Raleigh/5201-Turning-Branch-Ln-27603/home/41360514,TMLS,2188893,N,Y,35.6286831,-78.6852773
MLS Listing,,Single Family Residential,1209 Kinleywood Ct,Raleigh,NC,27603,258500,3,3.0,Silver Pointe,2185,25264,2010,10,118,37,Active,,,http://www.redfin.com/NC/Raleigh/1209-Kinleywood-Ct-27603/home/41329794,TMLS,2188892,N,Y,35.6092145,-78.6467606
MLS Listing,,Single Family Residential,5620 Turner Glen Dr,Raleigh,NC,27603,375000,3,3.0,Turner Downs,3104,24829,2005,10,121,32,Active,,,http://www.redfin.com/NC/Raleigh/5620-Turner-Glen-Dr-27603/home/41291978,TMLS,2188820,N,Y,35.6193203,-78.6785866
MLS Listing,,Single Family Residential,1113 Mountain Laurel Dr,Raleigh,NC,27603,285000,3,3.0,Laurel Grove,2513,30056,1999,10,113,,Active,,,http://www.redfin.com/NC/Raleigh/1113-Mountain-Laurel-Dr-27603/home/41236297,TMLS,2188762,N,Y,35.6016234,-78.6302431
MLS Listing,,Single Family Residential,1505 Hoke Landing Ln,Raleigh,NC,27603,399900,4,3.0,Hoke Landing,3083,27007,2016,10,130,30,Active,,,http://www.redfin.com/NC/Raleigh/1505-Hoke-Landing-Ln-27603/home/59280745,TMLS,2188693,N,Y,35.6127824,-78.628812
MLS Listing,,Single Family Residential,1509 Upchurch Woods Dr,Raleigh,NC,27603,300000,3,3.0,Upchurch Place,2233,24393,2005,11,134,15,Active,,,http://www.redfin.com/NC/Raleigh/1509-Upchurch-Woods-Dr-27603/home/41282991,TMLS,2188586,N,Y,35.6200942,-78.6223382
MLS Listing,,Single Family Residential,3410 Table Mountain Pine Dr,Raleigh,NC,27616,375575,4,3.0,Wake,3210,9583,2018,11,117,54,Active,,,http://www.redfin.com/NC/Raleigh/3410-Table-Mountain-Pine-Dr-27616/home/145377790,TMLS,2188569,N,Y,35.903439,-78.508817
MLS Listing,,Single Family Residential,6309 Kayton St Unit 3061 McCrory I,Raleigh,NC,27616,306785,3,3.0,Wake,1735,4138,2018,11,177,96,Active,,,http://www.redfin.com/NC/Raleigh/6309-Kayton-St-27616/unit-3061-McCrory-I/home/145544868,TMLS,2188354,N,Y,35.8608008,-78.5381526
MLS Listing,,Single Family Residential,5437 Holland Farms Way,Raleigh,NC,27603,279900,3,2.0,Holland Farms,1583,73180,1992,11,177,,Active,,,http://www.redfin.com/NC/Raleigh/5437-Holland-Farms-Way-27603/home/41187670,TMLS,2188327,N,Y,35.6322484,-78.650466
MLS Listing,,Single Family Residential,5912 Pine Tree Ct,Raleigh,NC,27609,279000,3,2.0,Northclift,1600,13503,1974,11,174,,Active,,,http://www.redfin.com/NC/Raleigh/5912-Pine-Tree-Ct-27609/home/41122915,TMLS,2188309,N,Y,35.8611148,-78.6512724
MLS Listing,,Single Family Residential,4800 Theys Rd,Raleigh,NC,27606,299900,3,2.0,Pen Shaw Pines,1913,54014,1977,12,157,,Active,,,http://www.redfin.com/NC/Raleigh/4800-Theys-Rd-27606/home/41123347,TMLS,2188201,N,Y,35.721218,-78.724324
MLS Listing,,Single Family Residential,2108 Longwood Dr,Raleigh,NC,27612,344900,3,3.0,Arlington Hills,1964,8276,1994,12,176,18,Active,May-13-2018 02:00 PM,May-13-2018 04:00 PM,http://www.redfin.com/NC/Raleigh/2108-Longwood-Dr-27612/home/41202094,TMLS,2188140,N,Y,35.8620821,-78.673444
MLS Listing,,Single Family Residential,4362 Auburn Hills Dr,Raleigh,NC,27616-9309,339900,4,3.0,Highland Creek,3103,6534,2016,13,110,56,Active,,,http://www.redfin.com/NC/Raleigh/4362-Auburn-Hills-Dr-27616/home/113050740,TMLS,2188038,N,Y,35.900175,-78.51921
MLS Listing,,Single Family Residential,12 Hill St,Raleigh,NC,27610,399000,3,3.0,College Park,1656,4356,2018,14,241,,Active,,,http://www.redfin.com/NC/Raleigh/12-Hill-St-27610/home/144826925,TMLS,2187964,N,Y,35.780743,-78.617391
MLS Listing,,Single Family Residential,3401 Table Mountain Pine Dr,Raleigh,NC,27616,371800,4,4.0,Wake,2926,7840,2018,14,127,54,Active,,,http://www.redfin.com/NC/Raleigh/3401-Table-Mountain-Pine-Dr-27616/home/145377791,TMLS,2187934,N,Y,35.903439,-78.508817
MLS Listing,,Single Family Residential,5704 Edgebury Rd,Raleigh,NC,27613,289900,3,3.0,Harrington Grove,1712,6098,1990,15,169,30,Active,,,http://www.redfin.com/NC/Raleigh/5704-Edgebury-Rd-27613/home/41186547,TMLS,2187838,N,Y,35.9292556,-78.7482881
MLS Listing,,Single Family Residential,1412 Rodessa Run,Raleigh,NC,27607,375000,3,3.0,Inside Wade Townhomes,1847,3484,2011,15,203,110,Active,,,http://www.redfin.com/NC/Raleigh/1412-Rodessa-Run-27607/home/41361782,TMLS,2187820,N,Y,35.8088271,-78.7353792
MLS Listing,,Single Family Residential,516 Seabring Ln,Raleigh,NC,27603,349500,3,3.0,Blalocks Glen,3154,38942,2018,15,111,30,Active,,,http://www.redfin.com/NC/Raleigh/516-Seabring-Ln-27603/home/145523510,TMLS,2187815,N,Y,35.5967753,-78.6625013
MLS Listing,,Single Family Residential,504 E Millbrook Rd,Raleigh,NC,27609,260000,3,2.0,Lakemont,1203,11325,1965,15,216,,Active,,,http://www.redfin.com/NC/Raleigh/504-E-Millbrook-Rd-27609/home/41080162,TMLS,2187800,N,Y,35.8513289,-78.6298773
MLS Listing,,Single Family Residential,10156 Chambers Rd,Raleigh,NC,27603,384900,4,4.0,Wake,2692,51400,2018,15,143,,Active,,,http://www.redfin.com/NC/Raleigh/10156-Chambers-Rd-27603/home/144789418,TMLS,2187781,N,Y,35.6341361,-78.7099133
MLS Listing,,Single Family Residential,2909 Rue Sans Famille,Raleigh,NC,27607,356500,3,3.0,Sans Famille,2101,5662,1981,15,170,42,Active,,,http://www.redfin.com/NC/Raleigh/2909-Rue-Sans-Famille-27607/home/41141084,TMLS,2187747,N,Y,35.822783,-78.688297
MLS Listing,,Single Family Residential,653 Rose Mallow Dr,Zebulon,NC,27597,261990,4,3.0,Wake,2800,6795,2018,15,94,50,Active,,,http://www.redfin.com/NC/Zebulon/653-Rose-Mallow-Dr-27597/home/145252807,TMLS,2187732,N,Y,35.760418024777,-78.600038200505
MLS Listing,,Single Family Residential,2812 Bardwell Rd,Raleigh,NC,27604,254900,3,2.0,Brentwood,1916,12196,1960,15,133,,Active,,,http://www.redfin.com/NC/Raleigh/2812-Bardwell-Rd-27604/home/41102414,TMLS,2187664,N,Y,35.8211261,-78.5985295
MLS Listing,,Single Family Residential,10901 Cokesbury Ln,Raleigh,NC,27614,309900,4,3.0,Falls River,1989,11325,2000,15,156,26,Active,,,http://www.redfin.com/NC/Raleigh/10901-Cokesbury-Ln-27614/home/41251624,TMLS,2187633,N,Y,35.9182422,-78.5672607
MLS Listing,,Single Family Residential,425 Waterville St,Raleigh,NC,27603,369900,4,3.0,Eagle Ridge,2950,14810,2016,16,125,42,Active,,,http://www.redfin.com/NC/Raleigh/425-Waterville-St-27603/home/65302791,TMLS,2187603,N,Y,35.6739253,-78.666068
MLS Listing,,Single Family Residential,3209 Groveshire Dr,Raleigh,NC,27616,289000,4,3.0,Neuse Crossing,3048,7840,2006,16,95,18,Active,,,http://www.redfin.com/NC/Raleigh/3209-Groveshire-Dr-27616/home/41299974,TMLS,2187540,N,Y,35.873573,-78.5252432
MLS Listing,,Single Family Residential,7220 Madiera Ct,Raleigh,NC,27615,329900,3,2.0,North Ridge,1477,16552,1969,16,223,,Active,,,http://www.redfin.com/NC/Raleigh/7220-Madiera-Ct-27615/home/41104518,TMLS,2187523,N,Y,35.8902219,-78.6234046
MLS Listing,,Single Family Residential,1125 River Chase Dr,Raleigh,NC,27601,369500,4,3.0,River Chase,3004,30056,2010,16,123,12,Active,,,http://www.redfin.com/NC/Raleigh/1125-River-Chase-Dr-27610/home/41297356,TMLS,2187388,N,Y,35.7201439,-78.46909
MLS Listing,,Single Family Residential,1419 Joe Louis Ave,Raleigh,NC,27610,399900,4,3.0,Joe Louis Park,1612,6098,2018,16,248,,Active,,,http://www.redfin.com/NC/Raleigh/1419-Joe-Louis-Ave-27610/home/144220650,TMLS,2187298,N,Y,35.7708493,-78.617585
MLS Listing,,Single Family Residential,6908 Brigmore Ct,Raleigh,NC,27617,305900,3,3.0,Woodlawn,2092,10454,1997,16,146,35,Active,,,http://www.redfin.com/NC/Raleigh/6908-Brigmore-Ct-27617/home/41214907,TMLS,2187291,N,Y,35.9178675,-78.7475986
MLS Listing,,Single Family Residential,4204 Clava Dr,Raleigh,NC,27616-8464,330000,4,3.0,Highland Creek,3116,8712,2013,16,106,56,Active,,,http://www.redfin.com/NC/Raleigh/4204-Clava-Dr-27616/home/59277627,TMLS,2187269,N,Y,35.8945819,-78.5208946
MLS Listing,,Single Family Residential,5425 N Hawthorne Way,Raleigh,NC,27613,390000,4,4.0,Hawthorne,3131,12196,1984,17,125,101,Active,May-13-2018 01:00 PM,May-13-2018 03:00 PM,http://www.redfin.com/NC/Raleigh/5425-N-Hawthorne-Way-27613/home/41157242,TMLS,2187240,N,Y,35.9326543,-78.7204956
MLS Listing,,Single Family Residential,5522 Wade Park Blvd,Raleigh,NC,27607,385000,4,4.0,Inside Wade Townhomes,1825,3484,2013,17,211,110,Active,,,http://www.redfin.com/NC/Raleigh/5522-Wade-Park-Blvd-27607/home/49879783,TMLS,2187220,N,Y,35.8082947,-78.7347635
MLS Listing,,Single Family Residential,2925 Suncrest Village Ln,Raleigh,NC,27616,351900,4,4.0,Suncrest Village,2679,7840,2018,17,131,40,Active,,,http://www.redfin.com/NC/Raleigh/2925-Suncrest-Village-Ln-27616/home/145501733,TMLS,2187219,N,Y,35.8744779,-78.5288556
MLS Listing,,Single Family Residential,5705 Cotkin Ln,Raleigh,NC,27603,255000,3,3.0,Silver Pointe,2247,22215,2011,17,113,37,Active,,,http://www.redfin.com/NC/Raleigh/5705-Cotkin-Ln-27603/home/41329790,TMLS,2187048,N,Y,35.6092229,-78.6459437
MLS Listing,,Single Family Residential,8511 Lasilla Way,Raleigh,NC,27616,345000,5,4.0,Highland Creek,3088,12632,2008,17,112,56,Active,,,http://www.redfin.com/NC/Raleigh/8511-Lasilla-Way-27616/home/41321010,TMLS,2187027,N,Y,35.8988633,-78.5125946
MLS Listing,,Single Family Residential,2642 Yellow Pine Rd,Raleigh,NC,27616,329113,5,3.0,Wake,2619,9147,2018,18,126,54,Active,,,http://www.redfin.com/NC/Raleigh/2642-Yellow-Pine-Rd-27616/home/145077646,TMLS,2186916,N,Y,35.903439,-78.508817
MLS Listing,,Single Family Residential,1125 Whitecroft Dr,Raleigh,NC,27603,399900,3,3.0,Whitecroft Manor,3460,23522,2015,19,116,35,Active,May-13-2018 12:00 PM,May-13-2018 02:00 PM,http://www.redfin.com/NC/Raleigh/1125-Whitecroft-Dr-27603/home/97826542,TMLS,2186825,N,Y,35.659744,-78.668801
MLS Listing,,Single Family Residential,8513 Erinsbrook Dr,Raleigh,NC,27617-8337,310000,3,2.0,Woodlawn,2153,7840,1997,19,144,35,Active,,,http://www.redfin.com/NC/Raleigh/8513-Erinsbrook-Dr-27617/home/41222596,TMLS,2186652,N,Y,35.9162412,-78.7477311
MLS Listing,,Single Family Residential,8521 Hurst Dr,Raleigh,NC,27603,394900,3,3.0,Whitecroft Manor,3011,20037,2017,19,131,35,Active,,,http://www.redfin.com/NC/Raleigh/8521-Hurst-Dr-27603/home/143219179,TMLS,2186645,N,Y,35.6611944,-78.6675634
MLS Listing,,Single Family Residential,1203 Castlestone Ln,Knightdale,NC,27545,291063,4,3.0,Langston Ridge,2454,10454,2018,20,119,60,Active,,,http://www.redfin.com/NC/Knightdale/1203-Castlestone-Ln-27545/home/145423022,TMLS,2186600,N,Y,35.789028,-78.532257
MLS Listing,,Single Family Residential,10209 Thoughtful Spot Way,Raleigh,NC,27614,379900,5,4.0,Bedford at Falls River,3858,8276,2006,20,98,60,Active,,,http://www.redfin.com/NC/Raleigh/10209-Thoughtful-Spot-Way-27614/home/41301914,TMLS,2186576,N,Y,35.9289771,-78.5747351
MLS Listing,,Single Family Residential,6305 Southern Charm Ln,Raleigh,NC,27603,335000,3,3.0,Southern Meadows,2849,24393,2006,21,118,30,Active,,,http://www.redfin.com/NC/Raleigh/6305-Southern-Charm-Ln-27603/home/41290863,TMLS,2186473,N,Y,35.6009621,-78.6429101
MLS Listing,,Single Family Residential,8905 Cub Trl,Raleigh,NC,27615,269900,3,3.0,Durant Trails,1574,11325,1988,21,171,25,Active,,,http://www.redfin.com/NC/Raleigh/8905-Cub-Trl-27615/home/41170376,TMLS,2186454,N,Y,35.8988572,-78.5930876
MLS Listing,,Single Family Residential,1100 Broadhaven Dr,Raleigh,NC,27603,364900,4,4.0,Turner Downs,3122,32670,2004,22,117,32,Active,,,http://www.redfin.com/NC/Raleigh/1100-Broadhaven-Dr-27603/home/41266114,TMLS,2186427,N,Y,35.620896,-78.6761291
MLS Listing,,Single Family Residential,2536 Springfield Park Dr,Raleigh,NC,27614,279760,4,3.0,Wakefield,2247,7840,2000,22,125,51,Active,,,http://www.redfin.com/NC/Raleigh/2536-Springfield-Park-Dr-27614/home/41253110,TMLS,2186382,N,Y,35.9389722,-78.5622767
MLS Listing,,Single Family Residential,416 E Millbrook Rd,Raleigh,NC,27609,310000,4,3.0,North Glen,1894,13503,1968,22,164,,Active,,,http://www.redfin.com/NC/Raleigh/416-E-Millbrook-Rd-27609/home/41072995,TMLS,2186256,N,Y,35.851406,-78.6324485
MLS Listing,,Single Family Residential,1209 Turner Woods Dr,Raleigh,NC,27603-9522,360000,3,3.0,Turner Downs,2763,24829,2005,22,130,32,Active,,,http://www.redfin.com/NC/Raleigh/1209-Turner-Woods-Dr-27603/home/41290975,TMLS,2186238,N,Y,35.618783,-78.670632
MLS Listing,,Single Family Residential,2013 Mallard Ln,Raleigh,NC,27609,349800,4,3.0,Fox Run,2669,13503,1973,23,131,,Active,,,http://www.redfin.com/NC/Raleigh/2013-Mallard-Ln-27609/home/41084029,TMLS,2186085,N,Y,35.8608467,-78.6071766
MLS Listing,,Single Family Residential,1029 Rolling Farm Dr,Raleigh,NC,27603,375000,3,3.0,Old Stage Place,2877,33105,2002,23,130,23,Active,,,http://www.redfin.com/NC/Raleigh/1029-Rolling-Farm-Dr-27603/home/41252324,TMLS,2186033,N,Y,35.6494688,-78.6711974
MLS Listing,,Single Family Residential,3815 Yates Mill Trl,Raleigh,NC,27606,340000,3,3.0,Crossings at Tryon,1800,4356,2011,23,189,17,Active,,,http://www.redfin.com/NC/Raleigh/3815-Yates-Mill-Trl-27606/home/41316027,TMLS,2186018,N,Y,35.7456169,-78.7040177
MLS Listing,,Single Family Residential,4105 Ridgebluffs Ct,Raleigh,NC,27603-8822,375000,3,3.0,Ridgebrook,2496,47480,1993,23,150,,Active,,,http://www.redfin.com/NC/Raleigh/4105-Ridgebluffs-Ct-27603/home/41179443,TMLS,2185826,N,Y,35.6645761,-78.7110099
MLS Listing,,Single Family Residential,3441 Longleaf Estates Dr,Raleigh,NC,27616,333500,5,3.0,Wake,2619,10018,2018,23,127,54,Active,,,http://www.redfin.com/NC/Raleigh/3441-Longleaf-Estates-Dr-27616/home/145077645,TMLS,2185822,N,Y,35.903439,-78.508817
MLS Listing,,Single Family Residential,1408 Lena Ln,Knightdale,NC,27545,299900,4,3.0,Cheswick,2872,6969,2015,24,104,50,Active,,,http://www.redfin.com/NC/Knightdale/1408-Lena-Ln-27545/home/69367683,TMLS,2185672,N,Y,35.76399,-78.530231
MLS Listing,,Single Family Residential,312 Colleton Rd,Raleigh,NC,27610,314900,3,3.0,Longview Park,1724,13068,1950,24,183,,Active,,,http://www.redfin.com/NC/Raleigh/312-Colleton-Rd-27610/home/41082260,TMLS,2185632,N,Y,35.7851442,-78.6124532
MLS Listing,,Single Family Residential,7105 Kinross Dr,Raleigh,NC,27613,250000,3,3.0,Brittany Woods,1439,6969,1990,24,174,38,Active,,,http://www.redfin.com/NC/Raleigh/7105-Kinross-Dr-27613/home/41163752,TMLS,2185582,N,Y,35.8768023,-78.711691
MLS Listing,,Single Family Residential,5517 Mapleridge Rd,Raleigh,NC,27609,359000,4,3.0,Cedar Hills Estates,2084,9147,1973,25,172,,Active,,,http://www.redfin.com/NC/Raleigh/5517-Mapleridge-Rd-27609/home/41116740,TMLS,2185562,N,Y,35.85715,-78.6255659
MLS Listing,,Single Family Residential,12508 Boone Hall Ct,Raleigh,NC,27614,399900,4,3.0,Wakefield,3251,20037,1998,25,123,25,Active,,,http://www.redfin.com/NC/Raleigh/12508-Boone-Hall-Ct-27614/home/41240707,TMLS,2185376,N,Y,35.9505355,-78.563113
MLS Listing,,Single Family Residential,5016 Swordfish Dr,Raleigh,NC,27603,255000,3,2.0,Crest of Carolina,1778,33541,2004,26,143,22,Active,,,http://www.redfin.com/NC/Raleigh/5016-Swordfish-Dr-27603/home/41360338,TMLS,2185327,N,Y,35.6389077,-78.6446389
MLS Listing,,Single Family Residential,7349 Birchshire Dr,Raleigh,NC,27616,279944,3,3.0,Bryson Village,2310,5662,2018,26,121,45,Active,,,http://www.redfin.com/NC/Raleigh/7349-Berkshire-Downs-Dr-27616/home/41338446,TMLS,2185261,N,Y,35.8776291,-78.5548281
MLS Listing,,Single Family Residential,3508 Bridlespur Ln,Raleigh,NC,27604,334900,3,3.0,Woodscreek,2145,42253,1977,26,156,1,Active,,,http://www.redfin.com/NC/Raleigh/3508-Bridlespur-Ln-27604/home/41128443,TMLS,2185206,N,Y,35.823883,-78.5540406
MLS Listing,,Single Family Residential,2508 Westham Pl,Raleigh,NC,27604,250000,4,3.0,Southall,2204,10890,1990,26,113,29,Active,,,http://www.redfin.com/NC/Raleigh/2508-Westham-Pl-27604/home/41177270,TMLS,2185152,N,Y,35.8164485,-78.5646434
MLS Listing,,Single Family Residential,8613 Hobhouse Cir,Raleigh,NC,27615,289000,4,3.0,Windsor Forest,2545,7405,1997,28,114,15,Active,,,http://www.redfin.com/NC/Raleigh/8613-Hobhouse-Cir-27615/home/41205378,TMLS,2184985,N,Y,35.894052,-78.5741141
MLS Listing,,Single Family Residential,101 Zaharis Cv,Raleigh,NC,27603,350000,4,3.0,Eagle Ridge,2395,17424,2004,29,146,42,Active,,,http://www.redfin.com/NC/Raleigh/101-Zaharis-Cv-27603/home/41264586,TMLS,2184939,N,Y,35.6671751,-78.6724272
MLS Listing,,Single Family Residential,5709 Lakehaven Dr,Raleigh,NC,27612,329900,3,2.0,Brandermill,1757,10454,1983,29,188,,Active,,,http://www.redfin.com/NC/Raleigh/5709-Lakehaven-Dr-27612/home/41148213,TMLS,2184911,N,Y,35.8636564,-78.6687935
MLS Listing,,Single Family Residential,5000 William And Mary Dr,Raleigh,NC,27616,329000,3,2.0,Wake,1943,110642,1979,29,169,,Active,,,http://www.redfin.com/NC/Raleigh/5000-William-and-Mary-Dr-27616/home/41134051,TMLS,2184886,N,Y,35.8464221,-78.5136065
MLS Listing,,Single Family Residential,1000 Canterbury Rd,Raleigh,NC,27607,369900,3,2.0,Forest Hills,1072,8712,1951,29,345,,Active,,,http://www.redfin.com/NC/Raleigh/1000-Canterbury-Rd-27607/home/41114409,TMLS,2184862,N,Y,35.7986849,-78.6688821
MLS Listing,,Single Family Residential,5313 Beckom St,Raleigh,NC,27616,399900,3,3.0,Wake,2472,4791,2018,29,162,95,Active,,,http://www.redfin.com/NC/Raleigh/5313-Beckom-St-27616/home/145312639,TMLS,2184837,N,Y,35.860766,-78.537124
MLS Listing,,Single Family Residential,8808 Deerland Grove Dr,Raleigh,NC,27615,384900,4,3.0,Hunters Knoll,2979,13939,1995,29,129,12,Active,,,http://www.redfin.com/NC/Raleigh/8808-Deerland-Grove-Dr-27615/home/41208631,TMLS,2184746,N,Y,35.8977977,-78.580967
MLS Listing,,Single Family Residential,31 Line Dr,Raleigh,NC,27603,259900,3,3.0,Waverly Pointe,2249,30404,2000,29,116,,Active,,,http://www.redfin.com/NC/Raleigh/31-Line-Dr-27603/home/43708696,TMLS,2184726,N,Y,35.5860808,-78.6190597
MLS Listing,,Single Family Residential,3556 Dewing Dr,Raleigh,NC,27616,300000,3,2.0,Heron Park,2042,20037,1998,29,147,10,Active,,,http://www.redfin.com/NC/Raleigh/3556-Dewing-Dr-27616/home/41224878,TMLS,2184713,N,Y,35.8754359,-78.5140593
MLS Listing,,Single Family Residential,5313 Country Ct,Raleigh,NC,27609,320000,3,2.0,Quail Meadows,1655,11761,1970,29,193,,Active,,,http://www.redfin.com/NC/Raleigh/5313-Country-Ct-27609/home/41075061,TMLS,2184704,N,Y,35.853602,-78.615823
MLS Listing,,Single Family Residential,1136 Chapanoke Rd,Raleigh,NC,27603-3475,396382,4,4.0,Renaissance Park,2944,5227,2007,30,135,77,Active,,,http://www.redfin.com/NC/Raleigh/1136-Chapanoke-Rd-27603/home/41324732,TMLS,2184616,N,Y,35.7364548,-78.6616833
MLS Listing,,Single Family Residential,11 St Augustine Ave,Raleigh,NC,27610,379700,3,3.0,College Park,1504,5662,2018,30,252,,Active,,,http://www.redfin.com/NC/Raleigh/11-Saint-Augustine-27610/home/145308866,TMLS,2184529,N,Y,35.7805899,-78.619237
MLS Listing,,Single Family Residential,103 N Pettigrew St,Raleigh,NC,27610,397500,3,3.0,College Park,1780,4486,2017,30,223,,Active,,,http://www.redfin.com/NC/Raleigh/103-N-Pettigrew-St-27610/home/86032833,TMLS,2184479,N,Y,35.781447,-78.620895
MLS Listing,,Single Family Residential,1119 Martin St,Raleigh,NC,27610,379900,3,2.0,Wake,1426,6969,1925,30,266,,Active,,,http://www.redfin.com/NC/Raleigh/1119-E-Martin-St-27610/home/41114885,TMLS,2184406,N,Y,35.7764961,-78.620999
MLS Listing,,Single Family Residential,1504 Stratlen Ct,Raleigh,NC,27615,375000,4,3.0,North Ridge,3035,25264,1972,30,124,,Active,,,http://www.redfin.com/NC/Raleigh/1504-Stratlen-Ct-27615/home/41341306,TMLS,2184397,N,Y,35.8918035,-78.6125666
MLS Listing,,Single Family Residential,1337 Hoke Landing Ln Lot 6,Raleigh,NC,27603,389900,4,4.0,Hoke Landing,2925,22651,2018,30,133,30,Active,May-13-2018 01:00 PM,May-13-2018 04:00 PM,http://www.redfin.com/NC/Raleigh/1337-Hoke-Landing-Ln-27603/unit-06/home/56352152,TMLS,2184386,N,Y,35.6151211,-78.6320664
MLS Listing,,Single Family Residential,6105 Spring Branch Ln Lot 34,Raleigh,NC,27603,399900,3,4.0,Hoke Landing,3012,23522,2018,30,133,30,Active,May-13-2018 01:00 PM,May-13-2018 04:00 PM,http://www.redfin.com/NC/Raleigh/6105-Spring-Branch-Cir-27603/unit-34/home/145079594,TMLS,2184385,N,Y,35.6141024,-78.631187
MLS Listing,,Single Family Residential,1521 Wescott Dr,Raleigh,NC,27614,359000,3,3.0,Wood Spring,2482,29620,1994,30,145,21,Active,,,http://www.redfin.com/NC/Raleigh/1521-Wescott-Dr-27614/home/41202476,TMLS,2184362,N,Y,35.9183149,-78.5838809
MLS Listing,,Single Family Residential,4825 Latimer Dr,Raleigh,NC,27609,325000,4,3.0,Lakemont,1974,12196,1966,31,165,,Active,,,http://www.redfin.com/NC/Raleigh/4825-Latimer-Rd-27609/home/41118273,TMLS,2184109,N,Y,35.8479939,-78.6284143
MLS Listing,,Single Family Residential,5800 Valley Estates Dr,Raleigh,NC,27612,330000,3,3.0,Fieldstream Farm,2631,16988,1983,31,125,,Active,,,http://www.redfin.com/NC/Raleigh/5800-Valley-Estates-Dr-27612/home/41143334,TMLS,2184080,N,Y,35.8650902,-78.6697241
MLS Listing,,Single Family Residential,908 Temple St,Raleigh,NC,27609,399900,4,3.0,Chestnut Hills,2323,20037,1966,31,172,,Active,,,http://www.redfin.com/NC/Raleigh/908-Temple-St-27609/home/41112181,TMLS,2184061,N,Y,35.8561417,-78.6516864
MLS Listing,,Single Family Residential,2320 Derby Dr,Raleigh,NC,27610,375000,4,4.0,Longview Park,2262,13068,1953,31,166,,Active,,,http://www.redfin.com/NC/Raleigh/2320-Derby-Dr-27610/home/41098517,TMLS,2184058,N,Y,35.7870057,-78.606021
MLS Listing,,Single Family Residential,3216 Hiking Trl,Raleigh,NC,27615,289750,3,3.0,Durant Trails,1912,11761,1990,32,152,25,Active,,,http://www.redfin.com/NC/Raleigh/3216-Hiking-Trl-27615/home/41180215,TMLS,2184048,N,Y,35.9011774,-78.5859788
MLS Listing,,Single Family Residential,185 Winfred Dr,Raleigh,NC,27603,275000,3,3.0,Waverly Pointe,2347,29185,2002,32,117,,Active,,,http://www.redfin.com/NC/Raleigh/185-Winfred-Dr-27603/home/43699348,TMLS,2180067,N,Y,35.5763657,-78.6184833
MLS Listing,,Single Family Residential,5321 Maplemoor Way,Raleigh,NC,27616,272870,4,3.0,Bryson Village,2300,6098,2018,32,119,45,Active,,,http://www.redfin.com/NC/Raleigh/5321-Maplemoor-Way-27616/home/145298648,TMLS,2183906,N,Y,35.836500000361,-78.512304999554
MLS Listing,,Single Family Residential,4128 Yadkin Dr,Raleigh,NC,27609-6335,399900,3,2.0,North Hills,1821,15681,1960,33,220,,Active,,,http://www.redfin.com/NC/Raleigh/4128-Yadkin-Dr-27609/home/41073596,TMLS,2183789,N,Y,35.8390739,-78.6549258
MLS Listing,,Single Family Residential,112 St Mellion St,Raleigh,NC,27603,400000,5,4.0,Eagle Ridge,3114,18295,2015,35,128,42,Active,,,http://www.redfin.com/NC/Raleigh/112-Saint-Mellion-St-27603/home/44551447,TMLS,2183575,N,Y,35.6732909,-78.6671538
MLS Listing,,Single Family Residential,5309 Forsyth Park St,Raleigh,NC,27616,321900,3,3.0,Wake,2168,3484,2016,36,148,95,Active,,,http://www.redfin.com/NC/Raleigh/5309-Forsyth-Park-St-27616/home/101612349,TMLS,2183351,N,Y,35.861817,-78.539621
MLS Listing,,Single Family Residential,1120 Timbercut Dr,Durham,NC,27703,361527,4,4.0,Durham,2334,6098,2018,36,155,75,Active,,,http://www.redfin.com/NC/Durham/1120-Timbercut-Dr-27703/home/144953747,TMLS,2183289,N,Y,35.923699,-78.779971
MLS Listing,,Single Family Residential,418 N King Charles Rd,Raleigh,NC,27610,374900,3,3.0,Longview,1504,15246,1951,36,249,,Active,,,http://www.redfin.com/NC/Raleigh/418-N-King-Charles-Rd-27610/home/41075175,TMLS,2183258,N,Y,35.7864604,-78.610738
MLS Listing,,Single Family Residential,803 Postell St,Raleigh,NC,27601-2037,399900,3,3.0,Wake,1484,6098,1956,36,269,,Active,,,http://www.redfin.com/NC/Raleigh/803-Postell-St-27601/home/145280496,TMLS,2183254,N,Y,35.773612,-78.6246801
MLS Listing,,Single Family Residential,5617 Deblyn Ave,Raleigh,NC,27612,279900,4,2.0,Brookhaven,2113,16552,1960,36,132,,Active,,,http://www.redfin.com/NC/Raleigh/5617-Deblyn-Ave-27612/home/41085889,TMLS,2183168,N,Y,35.8567941,-78.6987902
MLS Listing,,Single Family Residential,613 Shadywood Ln,Raleigh,NC,27603,299990,5,3.0,Nottingham,2934,40075,1985,37,102,,Active,,,http://www.redfin.com/NC/Raleigh/613-Shadywood-Ln-27603/home/41152589,TMLS,2183107,N,Y,35.6473721,-78.6387877
MLS Listing,,Single Family Residential,2011 Travern Dr Lot 28,Raleigh,NC,27603,344990,4,3.0,Wake,2405,6534,2018,37,143,37,Active,,,http://www.redfin.com/NC/Raleigh/2011-Travern-Dr-27603/unit-28/home/145280832,TMLS,2183032,N,Y,35.6585749,-78.6971097
MLS Listing,,Single Family Residential,2003 Travern Dr Lot 26,Raleigh,NC,27603,332500,4,3.0,Wake,2390,6098,2018,38,139,37,Active,,,http://www.redfin.com/NC/Raleigh/2003-Travern-Dr-27603/unit-26/home/145280355,TMLS,2182774,N,Y,35.6587799,-78.6968466
MLS Listing,,Single Family Residential,1129 Timbercut Dr,Durham,NC,27703,378574,4,3.0,Durham,2619,5227,2018,38,145,75,Active,,,http://www.redfin.com/NC/Durham/1129-Timbercut-Dr-27703/home/144953749,TMLS,2182763,N,Y,35.923699,-78.779971
MLS Listing,,Single Family Residential,5201 Blakeley Ln,Raleigh,NC,27613,289000,3,3.0,Harrington Grove,1850,6969,1993,38,156,30,Active,,,http://www.redfin.com/NC/Raleigh/5201-Blakeley-Ln-27613/home/41197782,TMLS,2179977,N,Y,35.9295037,-78.7426904
MLS Listing,,Single Family Residential,6508 Valley Estates Dr,Raleigh,NC,27612,325000,3,3.0,Wake,1950,17859,1982,39,167,,Active,,,http://www.redfin.com/NC/Raleigh/6508-Valley-Estates-Dr-27612/home/41134545,TMLS,2182441,N,Y,35.8707058,-78.6770837
MLS Listing,,Single Family Residential,1105 Ranchester Rd,Knightdale,NC,27545,329700,4,3.0,Cheswick,2980,9888,2012,39,111,50,Active,,,http://www.redfin.com/NC/KNIGHTDALE/1105-RANCHESTER-RD-27545/home/44525101,TMLS,2182438,N,Y,35.762136,-78.525761
MLS Listing,,Single Family Residential,7364 Birchshire Dr,Raleigh,NC,27616,281054,3,3.0,Bryson Village,2310,5662,2018,39,122,45,Active,,,http://www.redfin.com/NC/Raleigh/7364-Berkshire-Downs-Dr-27616/home/41156515,TMLS,2182389,N,Y,35.8771486,-78.5545286
MLS Listing,,Single Family Residential,6416 Giddings St Unit 3071 Watson,Raleigh,NC,27616,331715,4,4.0,Wake,2101,4138,2018,39,158,95,Active,,,http://www.redfin.com/NC/Raleigh/6416-Giddings-St-27616/unit-3071-Watson/home/145269755,TMLS,2182385,N,Y,35.8607386,-78.5386463
MLS Listing,,Single Family Residential,7309 Birchshire Dr,Raleigh,NC,27616,283117,3,3.0,Bryson Village,2300,7840,2018,39,123,45,Active,,,http://www.redfin.com/NC/Raleigh/7309-Berkshire-Downs-Dr-27616/home/41146625,TMLS,2182383,N,Y,35.8774599,-78.5582197
MLS Listing,,Single Family Residential,12577 Honeychurch St,Raleigh,NC,27614,315000,4,3.0,Wakefield,2562,9147,2006,39,123,25,Active,,,http://www.redfin.com/NC/Raleigh/12577-Honeychurch-St-27614/home/41310310,TMLS,2182352,N,Y,35.9679307,-78.5587244
MLS Listing,,Single Family Residential,5201 Duckdown Ct,Raleigh,NC,27604,309900,4,3.0,Pine Hall Plantation,3446,11761,2000,40,90,21,Active,,,http://www.redfin.com/NC/Raleigh/5201-Duckdown-Ct-27604/home/41221968,TMLS,2182314,N,Y,35.8201886,-78.5523547
MLS Listing,,Single Family Residential,3925 Ardleigh Ct,Raleigh,NC,27616,375000,3,4.0,Lauren Oaks,2773,30492,2004,40,135,13,Active,,,http://www.redfin.com/NC/Raleigh/3925-Ardleigh-Ct-27616/home/41250813,TMLS,2182289,N,Y,35.8580099,-78.4967928
MLS Listing,,Single Family Residential,2108 Village Oaks Ln,Raleigh,NC,27614,325000,4,3.0,Berkshire,2475,10018,1999,40,131,46,Active,,,http://www.redfin.com/NC/Raleigh/2108-Village-Oaks-Ln-27614/home/41270598,TMLS,2182262,N,Y,35.9415009,-78.5711199
MLS Listing,,Single Family Residential,13112 Elmleaf Ct,Raleigh,NC,27614,365000,4,3.0,Wakefield,3061,9583,1999,41,119,46,Active,,,http://www.redfin.com/NC/Raleigh/13112-Elmleaf-Ct-27614/home/41238155,TMLS,2182104,N,Y,35.941165,-78.5695896
MLS Listing,,Single Family Residential,1025 Blue River Farm Dr,Raleigh,NC,27603,264900,3,3.0,Britt Estates,2555,30056,2005,43,104,,Active,,,http://www.redfin.com/NC/Raleigh/1025-Blue-River-Farm-Dr-27603/home/41292372,TMLS,2176236,N,Y,35.6339235,-78.627705
MLS Listing,,Single Family Residential,3208 Brennan Dr,Raleigh,NC,27613,379000,3,4.0,Brandon Station,2975,29620,1979,43,127,,Active,,,http://www.redfin.com/NC/Raleigh/3208-Brennan-Dr-27613/home/41226597,TMLS,2181814,N,Y,35.8983996,-78.6881683
MLS Listing,,Single Family Residential,12108 Old Creedmoor Rd,Raleigh,NC,27613,295000,3,2.0,Wake,1257,84070,1988,44,235,,Active,,,http://www.redfin.com/NC/Raleigh/12108-Old-Creedmoor-Rd-27613/home/41173336,TMLS,2177056,N,Y,35.9626256,-78.7052611
MLS Listing,,Single Family Residential,5417 Dorcas St,Raleigh,NC,27606-1323,314900,3,3.0,Mount Vernon,1744,13939,2018,44,181,,Active,,,http://www.redfin.com/NC/Raleigh/5417-Dorcas-St-27606/home/145246675,TMLS,2181593,N,Y,35.7913087,-78.7175083
MLS Listing,,Single Family Residential,5121 Windmere Chase Dr Lot 165,Raleigh,NC,27616,319470,3,3.0,Belmont,2334,6098,2018,44,137,78,Active,,,http://www.redfin.com/NC/Raleigh/5121-Windmere-Chase-Dr-27616/unit-165/home/145246403,TMLS,2181564,N,Y,35.8390551,-78.5547228
MLS Listing,,Single Family Residential,3116 Queensland Rd,Raleigh,NC,27614,362500,4,4.0,Carrington,3300,10018,2004,45,110,23,Active,,,http://www.redfin.com/NC/Raleigh/3116-Queensland-Rd-27614/home/41287302,TMLS,2181480,N,Y,35.9381442,-78.5556613
MLS Listing,,Single Family Residential,2725 Rothgeb Dr,Raleigh,NC,27609,399900,3,2.0,White Oak,1275,14810,1957,46,314,,Active,,,http://www.redfin.com/NC/Raleigh/2725-Rothgeb-Dr-27609/home/41090469,TMLS,2181156,N,Y,35.8207512,-78.6434864
MLS Listing,,Single Family Residential,716 Silverleaf Pl,Raleigh,NC,27609,325000,3,2.0,Cedar Hills Estates,1718,14374,1973,47,189,,Active,,,http://www.redfin.com/NC/Raleigh/716-Silver-Leaf-Pl-27609/home/41119122,TMLS,2181065,N,Y,35.8582777,-78.6254753
MLS Listing,,Single Family Residential,904 Maynard Creek Ct,Cary,NC,27513,399000,5,3.0,Wake,2821,10018,2014,47,141,132,Active,,,http://www.redfin.com/NC/Cary/904-Maynard-Creek-Ct-27513/home/59280556,TMLS,2181008,N,Y,35.7978725,-78.764676
MLS Listing,,Single Family Residential,8531 Lasilla Way,Raleigh,NC,27616,299900,3,3.0,Highland Creek,2570,8276,2009,47,117,56,Active,,,http://www.redfin.com/NC/Raleigh/8531-Lasilla-Way-27616/home/41323008,TMLS,2180950,N,Y,35.8993546,-78.5124619
MLS Listing,,Single Family Residential,7588 Oakberry Dr,Raleigh,NC,27616,299900,4,3.0,Bryson Village,2558,8712,2015,47,117,45,Active,,,http://www.redfin.com/NC/Raleigh/7588-Oakberry-Dr-27616/home/101612346,TMLS,2180924,N,Y,35.838983,-78.508856
MLS Listing,,Single Family Residential,1101 Castlestone Ln,Knightdale,NC,27545,301630,4,3.0,Langston Ridge,2640,7840,2018,48,114,60,Active,,,http://www.redfin.com/NC/Knightdale/1101-Castlestone-Ln-27545/home/145230742,TMLS,2180910,N,Y,35.7883394,-78.5310954
MLS Listing,,Single Family Residential,700 Bailey Dr,Raleigh,NC,27610,265000,3,2.0,Rochester Heights,1213,10454,1960,48,218,,Active,,,http://www.redfin.com/NC/Raleigh/700-Bailey-Dr-27610/home/41069438,TMLS,2180841,N,Y,35.7560463,-78.6281483
MLS Listing,,Single Family Residential,2437 Cedar Rock Dr #505,Wake Forest,NC,27587,294727,3,3.0,Stonegate,2309,7230,2017,49,128,55,Active,May-13-2018 01:30 PM,May-13-2018 05:00 PM,http://www.redfin.com/NC/Wake-Forest/2437-Cedar-Rock-Dr-27587/unit-505/home/145213495,TMLS,2180773,N,Y,35.9037850672506,-78.5093742858887
MLS Listing,,Single Family Residential,8029 Bright Oak Trl,Raleigh,NC,27616,270000,3,3.0,Brighton,2288,6534,2002,50,118,17,Active,,,http://www.redfin.com/NC/Raleigh/8029-Bright-Oak-Trl-27616/home/41259690,TMLS,2180309,N,Y,35.8889041,-78.5151689
MLS Listing,,Single Family Residential,1412 Ivy Ln,Raleigh,NC,27609,365000,4,3.0,Fairfax Hills,1983,20037,1965,50,184,,Active,,,http://www.redfin.com/NC/Raleigh/1412-Ivy-Ln-27609/home/41087544,TMLS,2180632,N,Y,35.8548929,-78.6161334
MLS Listing,,Single Family Residential,8704 Chesley Ct,Raleigh,NC,27613,389900,3,3.0,Stonehenge,2275,25700,1979,50,171,,Active,,,http://www.redfin.com/NC/Raleigh/8704-Chesley-Ct-27613/home/41135761,TMLS,2180592,N,Y,35.8987399,-78.6846874
MLS Listing,,Single Family Residential,7912 Broad St,Raleigh,NC,27613,369000,5,3.0,Parklyn Woods,2880,10890,1996,50,128,,Active,,,http://www.redfin.com/NC/Raleigh/7912-Broad-St-27613/home/41214390,TMLS,2180535,N,Y,35.8912276,-78.6952903
MLS Listing,,Single Family Residential,2901 Bergamot Ct,Raleigh,NC,27614,399900,7,4.0,Wakefield,4203,16117,2006,50,95,27,Active,,,http://www.redfin.com/NC/Raleigh/2901-Bergamot-Ct-27614/home/41296394,TMLS,2178530,N,Y,35.9391867,-78.5551276
MLS Listing,,Single Family Residential,8601 Lasilla Way,Raleigh,NC,27616,274899,3,3.0,Highland Creek,2563,8276,2009,50,107,56,Active,,,http://www.redfin.com/NC/Raleigh/8601-Lasilla-Way-27616/home/41321496,TMLS,2180376,N,Y,35.8996441,-78.5124171
MLS Listing,,Single Family Residential,8105 Coleraine Ct,Raleigh,NC,27615,325000,4,3.0,Emerald Chase,2328,14374,1988,51,140,23,Active,,,http://www.redfin.com/NC/Raleigh/8105-Coleraine-Ct-27615/home/41230364,TMLS,2180347,N,Y,35.8934021,-78.6633704
MLS Listing,,Single Family Residential,2739 Kinsley Pl,Raleigh,NC,27616,285000,4,2.0,Highland Creek,2580,11325,2010,51,110,56,Active,May-13-2018 08:00 AM,May-13-2018 08:00 PM,http://www.redfin.com/NC/Raleigh/2739-Kinsley-Pl-27616/home/41324045,TMLS,2180191,N,Y,35.8986653,-78.5096653
MLS Listing,,Single Family Residential,3332 Sugar House St,Raleigh,NC,27614,359900,5,4.0,Wakefield,3559,7405,2006,51,101,23,Active,,,http://www.redfin.com/NC/Raleigh/3332-Sugar-House-St-27614/home/41312880,TMLS,2179951,N,Y,35.9676277,-78.5564549
MLS Listing,,Single Family Residential,4508 Leaf Ct,Raleigh,NC,27612,384900,4,3.0,Birchwood Hills,2284,11325,1965,51,169,,Active,,,http://www.redfin.com/NC/Raleigh/4508-Leaf-Ct-27612/home/41334257,TMLS,2180118,N,Y,35.8434918,-78.6679847
MLS Listing,,Single Family Residential,4904 Elm Heights Ln,Raleigh,NC,27616,287000,3,3.0,Brandemere,2530,7405,2013,52,113,30,Active,,,http://www.redfin.com/NC/Raleigh/4904-Elm-Heights-Ln-27616/home/45437116,TMLS,2180074,N,Y,35.8532136,-78.5613163
MLS Listing,,Single Family Residential,2633 Yellow Pine Rd,Raleigh,NC,27616,306566,3,2.0,Wake,1881,6098,2018,53,163,54,Active,,,http://www.redfin.com/NC/Raleigh/2633-Yellow-Pine-Rd-27616/home/145172501,TMLS,2179675,N,Y,35.903439,-78.508817
MLS Listing,,Single Family Residential,3356 Sugar House St,Raleigh,NC,27614,288000,4,3.0,Wakefield,2270,6534,2006,55,127,23,Active,,,http://www.redfin.com/NC/Raleigh/3356-Sugar-House-St-27614/home/41357138,TMLS,2176308,N,Y,35.9681392,-78.557368
MLS Listing,,Single Family Residential,6200 Mial Plantation Rd,Raleigh,NC,27610,400000,3,3.0,Wake,2732,433596,1979,57,146,,Active,,,http://www.redfin.com/NC/Raleigh/6200-Mial-Plantation-Rd-27610/home/41133729,TMLS,2179285,N,Y,35.701839,-78.479641
MLS Listing,,Single Family Residential,6551 Battle Bridge Rd,Raleigh,NC,27610-6207,264900,3,3.0,Wake,2608,60984,1999,57,102,,Active,,,http://www.redfin.com/NC/Raleigh/6551-Battle-Bridge-Rd-27610/home/41190144,TMLS,2179218,N,Y,35.725399,-78.542867
MLS Listing,,Single Family Residential,6213 Woodmark Trl,Raleigh,NC,27606,330000,3,3.0,Hunters Ridge,2702,41382,1984,57,122,,Active,,,http://www.redfin.com/NC/Raleigh/6213-Woodmark-Trl-27606/home/41141046,TMLS,2177879,N,Y,35.7052429,-78.7394065
MLS Listing,,Single Family Residential,485 Waterville St,Raleigh,NC,27603,385000,4,3.0,Eagle Ridge,2998,12196,2014,57,128,42,Active,,,http://www.redfin.com/NC/Raleigh/485-Waterville-St-27603/home/52208554,TMLS,2179033,N,Y,35.6747574,-78.6670652
MLS Listing,,Single Family Residential,7593 Oakberry Dr,Raleigh,NC,27616,315000,4,3.0,Bryson Village,3119,6534,2016,59,101,45,Active,,,http://www.redfin.com/NC/Raleigh/7593-Oakberry-Dr-27616/home/96982686,TMLS,2175997,N,Y,35.839442,-78.509238
MLS Listing,,Single Family Residential,10004 Whitestone Rd,Raleigh,NC,27516,400000,4,3.0,Stonebridge,2454,39639,1981,59,163,66,Active,May-20-2018 01:00 PM,May-20-2018 04:00 PM,http://www.redfin.com/NC/Raleigh/10004-Whitestone-Rd-27615/home/41137992,TMLS,2178571,N,Y,35.9187936,-78.6659487
MLS Listing,,Single Family Residential,5744 Manor Plantation Dr,Raleigh,NC,27603,329990,3,3.0,Turner Downs,2506,29620,2002,60,132,32,Active,,,http://www.redfin.com/NC/Raleigh/5744-Manor-Plantation-Dr-27603/home/41262647,TMLS,2178458,N,Y,35.6202204,-78.6734021
MLS Listing,,Single Family Residential,8004 Gilano Dr Lot 81,Raleigh,NC,27603,399990,5,4.0,Wake,3204,7405,2018,62,125,37,Active,,,http://www.redfin.com/NC/Raleigh/8004-Gilano-Dr-27603/unit-81/home/145178086,TMLS,2178145,N,Y,35.66152,-78.6979883
MLS Listing,,Single Family Residential,5309 Beckom St Unit 3119 Bishop I,Raleigh,NC,27616,349900,3,3.0,Wake,2400,4138,2017,63,146,96,Active,,,http://www.redfin.com/NC/Raleigh/5309-Beckom-St-27616/unit-3119-Bishop-I/home/144505914,TMLS,2178021,N,Y,35.8635083194531,-78.5391130447388
MLS Listing,,Single Family Residential,2206 Kira Ln,Raleigh,NC,27614-7438,399500,4,3.0,Bedford,2826,4356,2006,65,141,65,Active,,,http://www.redfin.com/NC/Raleigh/2206-Kira-Ln-27614/home/41297213,TMLS,2173767,N,Y,35.9251899,-78.5678817
MLS Listing,,Single Family Residential,1531 Michelle Dr,Raleigh,NC,27614,299900,4,3.0,Falls River Enclave,2569,8712,2003,65,117,13,Active,,,http://www.redfin.com/NC/Raleigh/1531-Michelle-Dr-27614/home/41281342,TMLS,2176687,N,Y,35.9249615,-78.5825557
MLS Listing,,Single Family Residential,4801 Metcalf Dr,Raleigh,NC,27612,389900,4,3.0,Oak Park,3048,18295,1978,65,128,,Active,,,http://www.redfin.com/NC/Raleigh/4801-Metcalf-Dr-27612/home/41087805,TMLS,2174239,N,Y,35.8466036,-78.7075777
MLS Listing,,Single Family Residential,4821 Heathshire Dr Lot 175,Raleigh,NC,27616,349871,5,4.0,Belmont,2622,6969,2018,66,133,78,Active,,,http://www.redfin.com/NC/Raleigh/4821-Heathshire-Dr-27616/unit-175/home/145085063,TMLS,2177199,N,Y,35.8400516,-78.5537551
MLS Listing,,Single Family Residential,3811 Yates Mill Trl,Raleigh,NC,27606,340000,3,3.0,Crossings at Tryon,1911,4356,2015,70,178,33,Active,,,http://www.redfin.com/NC/Raleigh/3811-Yates-Mill-Trl-27606/home/41357066,TMLS,2176479,N,Y,35.7456085,-78.7039291
MLS Listing,,Single Family Residential,830 Coleman St,Raleigh,NC,27610,399800,3,3.0,Quarry Hills,1711,4791,2018,71,234,,Active,,,http://www.redfin.com/NC/Raleigh/830-Coleman-St-27610/home/113111245,TMLS,2176324,N,Y,35.768433,-78.622883
MLS Listing,,Single Family Residential,1325 Formal Garden Way,Raleigh,NC,27603,324000,4,3.0,Renaissance Park,2397,3920,2013,71,135,81,Active,,,http://www.redfin.com/NC/Raleigh/1325-Formal-Garden-Way-27603/home/45354324,TMLS,2175482,N,Y,35.7377615,-78.658955
MLS Listing,,Single Family Residential,5316 Beardall St,Raleigh,NC,27616,365000,3,3.0,Wake,2150,4356,2015,72,170,95,Active,,,http://www.redfin.com/NC/Raleigh/5316-Beardall-St-27616/home/91426112,TMLS,2175874,N,Y,35.862161,-78.539388
MLS Listing,,Single Family Residential,5948 Dunbarton Way,Raleigh,NC,27613,399990,4,4.0,Hawthorne,3216,14374,1992,72,124,100,Active,,,http://www.redfin.com/NC/Raleigh/5948-Dunbarton-Way-27613/home/41182997,TMLS,2175619,N,Y,35.9419968,-78.7135859
MLS Listing,,Single Family Residential,2813 Oak Bridge Dr,Raleigh,NC,27610,324900,4,3.0,Wake,2633,20908,2003,73,123,15,Active,,,http://www.redfin.com/NC/Raleigh/2813-Oak-Bridge-Dr-27610/home/41254547,TMLS,2175632,N,Y,35.7290183,-78.5277062
MLS Listing,,Single Family Residential,5925 Lunenburg Dr,Raleigh,NC,27603,362000,4,4.0,Wake,3093,27007,2018,73,117,23,Active,,,http://www.redfin.com/NC/Raleigh/5925-Lunenburg-Dr-27603/home/144953099,TMLS,2175629,N,Y,35.611197,-78.6697518
MLS Listing,,Single Family Residential,4554 Tall Timber Dr,The Villages,FL,32162,365000,3,2.0,Grand Oaks Manor,1923,5663,2018,73,190,150,Active,,,http://www.redfin.com/FL/The-Villages/4554-Tall-Timber-Dr-32162/home/144945338,Beaches MLS,RX-10409393,N,Y,35.850006,-78.680291
MLS Listing,,Single Family Residential,2700 Cashlin Dr,Raleigh,NC,27616,340000,5,4.0,Highland Creek,3125,11325,2007,75,109,56,Active,,,http://www.redfin.com/NC/Raleigh/2700-Cashlin-Dr-27616/home/41321883,TMLS,2175326,N,Y,35.8999718,-78.5134157
MLS Listing,,Single Family Residential,8500 Clivedon Dr,Raleigh,NC,27615-3990,312500,3,3.0,Durant Quarter,2219,7405,1995,75,141,41,Active,,,http://www.redfin.com/NC/Raleigh/8500-Clivedon-Dr-27615/home/41186300,TMLS,2175271,N,Y,35.8954809,-78.5865997
MLS Listing,,Single Family Residential,1417 Garner Rd,Raleigh,NC,27610,315000,3,3.0,Wake,1248,6969,2018,77,252,,Active,,,http://www.redfin.com/NC/Raleigh/1417-Garner-Rd-27610/home/41083133,TMLS,2174972,N,Y,35.7623997,-78.6312073
MLS Listing,,Single Family Residential,4713 Broad Falls Ln Lot 132,Knightdale,NC,27545,299429,4,3.0,Poplar Creek Village,2514,6534,2018,77,119,38,Active,,,http://www.redfin.com/NC/Knightdale/4713-Broad-Falls-Ln-27545/unit-132/home/144918903,TMLS,2174952,N,Y,35.7792527320679,-78.5343237283472
MLS Listing,,Single Family Residential,5313 Maplemoor Way,Raleigh,NC,27616,286037,3,2.0,Bryson Village,1901,6098,2018,79,150,45,Active,,,http://www.redfin.com/NC/Raleigh/5313-Maplemoor-Way-27616/home/144911030,TMLS,2174486,N,Y,35.836500000361,-78.512304999554
MLS Listing,,Single Family Residential,5921 Lunenburg Dr,Raleigh,NC,27603,345750,3,3.0,Wake,2700,27007,2018,80,128,23,Active,,,http://www.redfin.com/NC/Raleigh/5921-Lunenburg-Dr-27603/home/144906025,TMLS,2174221,N,Y,35.6129292,-78.6676611
MLS Listing,,Single Family Residential,102 Silverhawk Ln,Durham,NC,27703,390000,4,4.0,Durham,2965,6098,2018,82,132,75,Active,,,http://www.redfin.com/NC/Durham/102-Silverhawk-Ln-27703/home/144712164,TMLS,2173912,N,Y,35.923699,-78.779971
MLS Listing,,Single Family Residential,4706 Broad Falls Ln Lot 140,Knightdale,NC,27545,307188,4,3.0,Poplar Creek Village,2441,7405,2017,83,126,38,Active,,,http://www.redfin.com/NC/Knightdale/4706-Broad-Falls-Ln-27545/unit-140/home/144897765,TMLS,2173810,N,Y,35.7792527320679,-78.5343237283472
MLS Listing,,Single Family Residential,3504 Longleaf Estates Dr,Raleigh,NC,27616,392440,4,3.0,Wake,3213,8712,2018,84,122,54,Active,May-13-2018 02:00 PM,May-13-2018 05:00 PM,http://www.redfin.com/NC/Raleigh/3504-Longleaf-Estates-Dr-27616/home/144887272,TMLS,2173685,N,Y,35.903439,-78.508817
MLS Listing,,Single Family Residential,3422 Table Mountain Pine Dr,Raleigh,NC,27616,378830,3,3.0,Wake,2935,9147,2018,84,129,54,Active,May-13-2018 02:00 PM,May-13-2018 05:00 PM,http://www.redfin.com/NC/Raleigh/3422-Table-Mountain-Pine-Dr-27616/home/144886676,TMLS,2173663,N,Y,35.903439,-78.508817
MLS Listing,,Single Family Residential,4113 Mangrove Dr,Raleigh,NC,27616,250000,3,3.0,Forestville Farms,1983,11325,1996,84,126,12,Active,,,http://www.redfin.com/NC/Raleigh/4113-Mangrove-Dr-27616/home/41214725,TMLS,2172852,N,Y,35.8726627,-78.5188526
MLS Listing,,Single Family Residential,3400 Parlor St,Raleigh,NC,27614,329000,3,3.0,Cedar Grove,2830,5227,2006,85,116,23,Active,,,http://www.redfin.com/NC/Raleigh/3400-Parlor-St-27614/home/41356334,TMLS,2173545,N,Y,35.9689083,-78.5553272
MLS Listing,,Single Family Residential,642 Seastone St,Raleigh,NC,27603,310000,4,3.0,Eagle Ridge,2732,19166,2006,85,113,42,Active,,,http://www.redfin.com/NC/Raleigh/642-Seastone-St-27603/home/41256562,TMLS,2173351,N,Y,35.6645783,-78.6748201
MLS Listing,,Single Family Residential,8004 Kate Schabot Dr,Raleigh,NC,27616,310000,4,3.0,Highland Creek,3232,9147,2015,85,96,58,Active,,,http://www.redfin.com/NC/Raleigh/8004-Kate-Schabot-Dr-27616/home/103507798,TMLS,2172913,N,Y,35.900192,-78.521612
MLS Listing,,Single Family Residential,607 Maywood Ave,Raleigh,NC,27603,397000,3,3.0,Caraleigh,1506,1742,2017,86,264,17,Active,,,http://www.redfin.com/NC/Raleigh/607-Maywood-Ave-27603/home/144881256,TMLS,2173325,N,Y,35.7605499,-78.6566577
MLS Listing,,Single Family Residential,2330 Lazy River Dr,Raleigh,NC,27610,260000,4,3.0,EdgeWtr,2509,6969,2005,86,104,35,Active,,,http://www.redfin.com/NC/Raleigh/2330-Lazy-River-Dr-27610/home/41294566,TMLS,2173322,N,Y,35.802601,-78.5461432
MLS Listing,,Single Family Residential,12021 N Exeter Way,Raleigh,NC,27613,400000,4,3.0,Harrington Grove,2546,9583,1993,86,157,50,Active,,,http://www.redfin.com/NC/Raleigh/12021-N-Exeter-Way-27613/home/41172309,TMLS,2173293,N,Y,35.925752,-78.753222
MLS Listing,,Single Family Residential,1148 Southern Meadows Dr,Raleigh,NC,27603,347900,3,3.0,Southern Meadows,2780,23522,2006,90,125,30,Active,,,http://www.redfin.com/NC/Raleigh/1148-Southern-Meadows-Dr-27603/home/41292367,TMLS,2172527,N,Y,35.6017891,-78.6480519
MLS Listing,,Single Family Residential,3712 Dade St,Raleigh,NC,27612,400000,4,2.0,Beckana,2153,18730,1958,94,186,,Active,,,http://www.redfin.com/NC/Raleigh/3712-Dade-St-27612/home/41110208,TMLS,2171879,N,Y,35.8324685,-78.6693695
MLS Listing,,Single Family Residential,4304 Walker Hallow St,Raleigh,NC,27616,350000,4,4.0,Belmont,2425,7405,2017,94,144,72,Active,,,http://www.redfin.com/NC/Raleigh/4304-Walker-Hallow-St-27616/home/144829654,TMLS,2171749,N,Y,35.837291,-78.552512
MLS Listing,,Single Family Residential,1321 Hoke Landing Ln Lot 3,Raleigh,NC,27603,379900,3,3.0,Hoke Landing,2748,23522,2018,95,138,30,Active,May-13-2018 01:00 PM,May-13-2018 04:00 PM,http://www.redfin.com/NC/Raleigh/1321-Hoke-Landing-Ln-27603/unit-3/home/144825398,TMLS,2171581,N,Y,35.6146573,-78.6331901
MLS Listing,,Single Family Residential,11608 Leesville Rd,Raleigh,NC,27609,275000,3,3.0,Wake,2831,52707,1986,97,97,,Active,,,http://www.redfin.com/NC/Raleigh/11608-Leesville-Rd-27613/home/41094503,TMLS,2171327,N,Y,35.9199154,-78.7430377
MLS Listing,,Single Family Residential,14012 Durant Rd,Raleigh,NC,27614,259999,3,2.0,Wake,1350,40510,1963,99,193,,Active,,,http://www.redfin.com/NC/Raleigh/14012-Durant-Rd-27614/home/41086317,TMLS,2170536,N,Y,35.9249847,-78.6473427
MLS Listing,,Single Family Residential,3426 Piping Plover Dr,Raleigh,NC,27616,296550,4,4.0,Massey Preserve,2425,9147,2018,102,122,50,Active,,,http://www.redfin.com/NC/Raleigh/3426-Piping-Plover-Dr-27616/home/109594194,TMLS,2170262,N,Y,35.8654771,-78.5180286
MLS Listing,,Single Family Residential,4202 Prelude St,Raleigh,NC,27616-1941,300000,3,3.0,Wheatleigh,2330,10890,2017,105,129,,Active,,,http://www.redfin.com/NC/Raleigh/4202-Prelude-St-27616/unit-11/home/44550758,TMLS,2169991,N,Y,35.87014,-78.517433
MLS Listing,,Single Family Residential,501 Seabring Ln,Raleigh,NC,27603,324500,3,2.0,Blalocks Glen,2059,39944,2018,106,158,30,Active,,,http://www.redfin.com/NC/Raleigh/501-Seabring-Ln-27603/home/144769932,TMLS,2169809,N,Y,35.594339,-78.657607
MLS Listing,,Single Family Residential,2321 Hinton St,Raleigh,NC,27612,379900,3,3.0,Wake,2391,5662,2018,107,159,,Active,,,http://www.redfin.com/NC/Raleigh/2321-Hinton-St-27612/home/41112134,TMLS,2169623,N,Y,35.8718695,-78.6813338
MLS Listing,,Single Family Residential,8204 Old Deer Trl,Raleigh,NC,27615,362000,4,3.0,Summerfield North,2590,11325,1984,107,140,39,Active,,,http://www.redfin.com/NC/Raleigh/8204-Old-Deer-Trl-27615/home/41153438,TMLS,2169550,N,Y,35.8893141,-78.6416247
MLS Listing,,Single Family Residential,400 Seabring Ln,Raleigh,NC,27603,329500,3,2.0,Blalocks Glen,2059,115869,2018,110,160,30,Active,,,http://www.redfin.com/NC/Raleigh/400-Seabring-Ln-27603/home/144757322,TMLS,2168982,N,Y,35.594339,-78.657607
MLS Listing,,Single Family Residential,3422 Piping Plover Dr,Raleigh,NC,27616,315680,5,4.0,Massey Preserve,3000,9147,2018,116,105,50,Active,,,http://www.redfin.com/NC/Raleigh/3422-Piping-Plover-Dr-27616/home/109594131,TMLS,2168300,N,Y,35.8653035,-78.5179182
MLS Listing,,Single Family Residential,2102 Manuel St,Raleigh,NC,27612,400000,4,3.0,Beckana,2207,13939,1952,121,181,,Active,,,http://www.redfin.com/NC/Raleigh/2102-Manuel-St-27612/home/41076743,TMLS,2167651,N,Y,35.8307354,-78.673453
MLS Listing,,Single Family Residential,1539 1/2 Battery Dr,Raleigh,NC,27610,389900,3,3.0,Battery Heights,1520,4356,2017,121,257,,Active,,,http://www.redfin.com/NC/Raleigh/1539-Battery-Dr-27610/home/144378011,TMLS,2167542,N,Y,35.776423,-78.6147639
MLS Listing,,Single Family Residential,3012 Oak Bridge Dr,Raleigh,NC,27610,310000,4,3.0,Wake,3024,21780,2002,123,103,15,Active,,,http://www.redfin.com/NC/Raleigh/3012-Oak-Bridge-Dr-27610/home/41256078,TMLS,2166806,N,Y,35.7260616,-78.5282609
MLS Listing,,Single Family Residential,5429 Overdale Ln,Raleigh,NC,27603,399900,4,4.0,Braxton,4061,23609,2014,126,98,45,Active,,,http://www.redfin.com/NC/Raleigh/5429-Overdale-Ln-27603/home/49784514,TMLS,2166811,N,Y,35.6290851,-78.6660224
MLS Listing,,Single Family Residential,1228 Turner Woods Dr,Raleigh,NC,27603,375000,3,3.0,Turner Downs,3088,34412,2006,128,121,32,Active,,,http://www.redfin.com/NC/Raleigh/1228-Turner-Woods-Dr-27603/home/41290452,TMLS,2166504,N,Y,35.6189047,-78.6733135
MLS Listing,,Single Family Residential,1029 Mills St,Raleigh,NC,27608,269900,3,2.0,Forest Acres,1231,6098,1992,130,219,,Active,,,http://www.redfin.com/NC/Raleigh/1029-Mills-St-27608/home/41095515,TMLS,2165642,N,Y,35.811147,-78.6221684
MLS Listing,,Single Family Residential,8009 Peachtree Town Ln Lot 27,Knightdale,NC,27545,368938,5,4.0,Princeton Manor,3011,18730,2017,134,123,53,Active,,,http://www.redfin.com/NC/Knightdale/8009-Peachtree-Town-Ln-27545/unit-27/home/144584581,TMLS,2165882,N,Y,35.7801819,-78.5345435
MLS Listing,,Single Family Residential,8007 Peachtree Town Ln Lot 28,Knightdale,NC,27545,345924,3,3.0,Princeton Manor,2648,15246,2017,142,131,53,Active,,,http://www.redfin.com/NC/Knightdale/8007-Peachtree-Town-Ln-27545/unit-28/home/144541133,TMLS,2165338,N,Y,35.7801819,-78.5345435
MLS Listing,,Single Family Residential,633 Shadywood Ln,Raleigh,NC,27603,329000,4,3.0,Nottingham Forest,3007,42253,1987,152,109,,Active,,,http://www.redfin.com/NC/Raleigh/633-Shadywood-Ln-27603/home/41149068,TMLS,2164084,N,Y,35.6494922,-78.6380341
MLS Listing,,Single Family Residential,525 S Haywood St,Raleigh,NC,27601,269000,3,2.0,Wake,1185,6969,1910,160,227,,Active,,,http://www.redfin.com/NC/Raleigh/525-S-Haywood-St-27601/home/41068032,TMLS,2163127,N,Y,35.772924,-78.6280824
MLS Listing,,Single Family Residential,1105 Holmes St,Raleigh,NC,27601,300000,3,2.0,Wake,1842,10890,1956,166,163,,Active,,,http://www.redfin.com/NC/Raleigh/1105-Holmes-St-27601/home/41084405,TMLS,2162366,N,Y,35.7663561,-78.6281267
MLS Listing,,Single Family Residential,3200 Caldwell Dr,Raleigh,NC,27607,385000,4,3.0,Meredith Woods,2793,24829,1968,172,138,,Active,,,http://www.redfin.com/NC/Raleigh/3200-Caldwell-Dr-27607/home/41060816,TMLS,2161955,N,Y,35.8100366,-78.6944928
MLS Listing,,Single Family Residential,1400 Opal Ct,Raleigh,NC,27615,315000,4,3.0,Emerald Point,2182,8712,1995,177,144,21,Active,,,http://www.redfin.com/NC/Raleigh/1400-Opal-Ct-27615/home/41200459,TMLS,2161148,N,Y,35.8997512,-78.6634226
MLS Listing,,Single Family Residential,6709 Lucado Ct,Raleigh,NC,27603,329400,4,4.0,Blalocks Glen,3166,24742,2017,187,104,30,Active,May-13-2018 02:00 PM,May-13-2018 04:00 PM,http://www.redfin.com/NC/Raleigh/6709-Lucado-Ct-27603/home/144266829,TMLS,2159837,N,Y,35.594339,-78.657607
MLS Listing,,Single Family Residential,3442 Grosbeak Way,Raleigh,NC,27616,375000,4,4.0,Massey Preserve,3400,11761,2017,198,110,50,Active,May-13-2018 02:00 PM,May-13-2018 05:00 PM,http://www.redfin.com/NC/Raleigh/3442-Grosbeak-Way-27616/home/103262740,TMLS,2158238,N,Y,35.8664597,-78.5169076
MLS Listing,,Single Family Residential,4160 Landover Ln,Raleigh,NC,27616,387900,3,2.0,Wake,1630,275299,1977,201,238,,Active,,,http://www.redfin.com/NC/Raleigh/4160-Landover-Ln-27616/home/41120428,TMLS,2157735,N,Y,35.852209,-78.516679
MLS Listing,,Single Family Residential,2319 Derby Dr,Raleigh,NC,27610-1741,387000,3,3.0,Longview Park,1581,12196,1953,206,245,,Active,,,http://www.redfin.com/NC/Raleigh/2319-Derby-Dr-27610/home/41109166,TMLS,2156970,N,Y,35.7874772,-78.6062748
MLS Listing,,Single Family Residential,8517 Hurst Dr,Raleigh,NC,27603,399900,3,3.0,Whitecroft Manor,3018,21780,2017,214,133,35,Active,,,http://www.redfin.com/NC/Raleigh/8517-Hurst-Dr-27603/home/144038485,TMLS,2155672,N,Y,35.6611944,-78.6675634
MLS Listing,,Single Family Residential,6424 Giddings St,Raleigh,NC,27616,395000,3,3.0,Wake,2472,6098,2017,245,160,95,Active,,,http://www.redfin.com/NC/RALEIGH/6424-GIDDINGS-ST-27616/home/143743083,TMLS,2150410,N,Y,35.860948,-78.538799
MLS Listing,,Single Family Residential,449 Rose Ln,Raleigh,NC,27610,398500,4,3.0,Wake,2409,13068,2018,256,165,,Active,,,http://www.redfin.com/NC/Raleigh/449-Rose-Ln-27610/home/113233660,TMLS,2148416,N,Y,35.7689062,-78.5986005
MLS Listing,,Single Family Residential,3600 Griffice Mill Rd,Raleigh,NC,27610,369000,4,3.0,Preserve Long Branch Farms,2937,31798,2017,256,126,35,Active,,,http://www.redfin.com/NC/Raleigh/3600-Griffice-Mill-Rd-27610/unit-11/home/59400082,TMLS,2145001,N,Y,35.711094,-78.512313
MLS Listing,,Single Family Residential,1510 Battery Dr,Raleigh,NC,27610,369900,3,2.0,Battery Heights,1285,10890,1968,276,288,,Active,,,http://www.redfin.com/NC/Raleigh/1510-Battery-Dr-27610/home/41152869,TMLS,2144936,N,Y,35.7767521,-78.6162214
MLS Listing,,Single Family Residential,5412 Whistling Duck Ct #41,Raleigh,NC,27603,335762,3,3.0,Heather Glen,2373,30492,2017,278,141,48,Active,,,http://www.redfin.com/NC/Raleigh/5412-Whistling-Duck-Ct-27603/unit-41/home/145213537,TMLS,2144344,N,Y,35.6280881,-78.6182187
MLS Listing,,Single Family Residential,800 Crown Crossing Ln,Raleigh,NC,27610,395000,3,3.0,Crown Crossing,2759,12632,2017,289,143,,Active,,,http://www.redfin.com/NC/Raleigh/800-Crown-Crossing-Ln-27610/home/101693809,TMLS,2142348,N,Y,35.7439409,-78.6272395
MLS Listing,,Single Family Residential,6604 Parizade St,Raleigh,NC,27603,299750,3,3.0,Blalocks Glen,2342,23914,2018,331,128,30,Active,May-13-2018 02:00 PM,May-13-2018 04:00 PM,http://www.redfin.com/NC/Raleigh/6604-Parizade-St-27603/home/123609841,TMLS,2134410,N,Y,35.594339,-78.657607
MLS Listing,,Single Family Residential,6600 Parizade St,Raleigh,NC,27603,332900,4,4.0,Blalocks Glen,2935,26528,2017,383,113,30,Active,,,http://www.redfin.com/NC/Raleigh/6600-Parizade-St-27603/home/113782204,TMLS,2123975,N,Y,35.5968521,-78.6602472
New Construction Home,,Single Family Residential,3405 Table Mountain Pine Dr,Raleigh,NC,27616,298475,3,3.0,Longleaf Estates - Highland Collection,2475,,2018,7,121,,Active,,,http://www.redfin.com/NC/Raleigh/3405-Pine-Dr-27604/home/145570626,NewHomeSource.com,1447127,N,Y,35.903439,-78.508817
New Construction Home,,Single Family Residential,1128 Timbercut Dr,Durham,NC,27703,365097,4,3.5,Andrews Chapel,2342,,2018,35,156,,Active,,,http://www.redfin.com/NC/Durham/1128-Timbercut-Dr-27703/home/145290347,NewHomeSource.com,1437047,N,Y,35.923699,-78.779971
New Construction Home,,Single Family Residential,6408 Giddings St,Raleigh,NC,27616,370000,3,2.5,"5401 North-Raleigh, NC",2652,,2018,63,140,,Active,,,http://www.redfin.com/NC/Raleigh/6408-Giddings-St-27616/home/143713847,NewHomeSource.com,1427268,N,Y,35.864116,-78.546468
New Construction Home,,Single Family Residential,1124 Timbercut Dr,Durham,NC,27703,379454,4,3.5,Andrews Chapel,2619,,2018,73,145,,Active,,,http://www.redfin.com/NC/Durham/1124-Timbercut-Dr-27703/home/144953751,NewHomeSource.com,1422443,N,Y,35.923699,-78.779971
New Construction Home,,Single Family Residential,1341 Hoke Landing Ln,Raleigh,NC,27603,384900,3,2.5,Hoke Landing,2755,,2017,220,140,,Active,,,http://www.redfin.com/NC/Raleigh/1341-Hoke-Landing-Ln-27603/home/59280791,NewHomeSource.com,1377574,N,Y,35.6151045,-78.63169
New Construction Home,,Single Family Residential,1437 Hoke Landing Ln,Raleigh,NC,27603,386900,3,2.5,Hoke Landing,2771,,2017,220,140,,Active,,,http://www.redfin.com/NC/Raleigh/1437-Hoke-Landing-Ln-27603/home/59280750,NewHomeSource.com,1377578,N,Y,35.6132816,-78.6292773
New Construction Home,,Single Family Residential,6109 Spring Branch Cir,Raleigh,NC,27603,394900,4,3.5,Hoke Landing,2963,,2017,220,133,,Active,,,http://www.redfin.com/NC/Raleigh/6109-Spring-Branch-Cir-27603/home/59280809,NewHomeSource.com,1377582,N,Y,35.6137624,-78.6310826
New Construction Home,,Single Family Residential,6116 Spring Branch Cir,Raleigh,NC,27603,389900,3,3.5,Hoke Landing,2902,,2017,220,134,,Active,,,http://www.redfin.com/NC/Raleigh/6116-Spring-Branch-Cir-27603/home/59280805,NewHomeSource.com,1377516,N,Y,35.6128775,-78.6316705
New Construction Home,,Single Family Residential,1305 Hoke Landing Ln,Raleigh,NC,27603,399900,4,2.5,Hoke Landing,2833,,2017,220,141,,Active,,,http://www.redfin.com/NC/Raleigh/1305-Hoke-Landing-Ln-27603/home/59280824,NewHomeSource.com,1377520,N,Y,35.6145788,-78.6347315
New Construction Home,,Single Family Residential,1500 Hoke Landing Ln,Raleigh,NC,27603,399000,3,3.0,Hoke Landing,2886,,2017,220,138,,Active,,,http://www.redfin.com/NC/Raleigh/1500-Hoke-Landing-Ln-27603/unit-26/home/112980843,NewHomeSource.com,1377521,N,Y,35.6123584,-78.6291634
New Construction Home,,Single Family Residential,1337 Hoke Landing Ln,Raleigh,NC,27603,389900,4,4.0,Hoke Landing,2925,,2017,220,133,,Active,,,http://www.redfin.com/NC/Raleigh/1337-Hoke-Landing-Ln-27603/home/59280788,NewHomeSource.com,1377584,N,Y,35.6151211,-78.6320664
New Construction Home,,Single Family Residential,5309 Beckom St,Raleigh,NC,27616,361165,3,2.5,5401 North,2388,,2017,221,151,,Active,,,http://www.redfin.com/NC/Raleigh/5309-Beckom-St-27616/home/143383954,NewHomeSource.com,1377733,N,Y,35.8647,-78.5421
New Construction Home,,Single Family Residential,5520 Red Line Ct,Raleigh,NC,27603,387700,4,4.5,Heather Glen,3274,,2017,281,118,,Active,,,http://www.redfin.com/NC/Raleigh/5520-Red-Line-Ct-27603/unit-21/home/140559435,NewHomeSource.com,1358116,N,Y,35.613447,-78.620446
New Construction Home,,Single Family Residential,5308 Forsyth St,Raleigh,NC,27616,350000,3,2.5,"5401 North-Raleigh, NC",1857,,2017,343,188,,Active,,,http://www.redfin.com/NC/Raleigh/5308-Forsyth-Park-St-27616/home/113252439,NewHomeSource.com,1339302,N,Y,35.861361,-78.539659
New Construction Home,,Single Family Residential,5301 Beckom St,Raleigh,NC,27616,395000,4,3.5,"5401 North-Raleigh, NC",2291,,2017,343,172,,Active,,,http://www.redfin.com/NC/Raleigh/5301-Beckom-St-27616/home/113971861,NewHomeSource.com,1339294,N,Y,35.864116,-78.546468
New Construction Home,,Single Family Residential,6317 Kayton St,Raleigh,NC,27616,393000,4,3.0,"5401 North-Raleigh, NC",2472,,2017,343,159,,Active,,,http://www.redfin.com/NC/Raleigh/6317-27616/home/144607742,NewHomeSource.com,1339298,N,Y,35.860967,-78.538271
New Construction Plan,,Single Family Residential,Tryon II,Raleigh,NC,27616,291990,4,2.0,Longleaf Estates - Summit Collection,3020,,,,97,,Active,,,http://www.redfin.com/NC/Raleigh/Longleaf-Estates-Summit-Collection/Tryon-II/home/145639912,NewHomeSource.com,Plan-41465168,N,Y,35.903439,-78.508817
New Construction Plan,,Single Family Residential,Landrum II,Raleigh,NC,27616,275990,4,3.0,Longleaf Estates - Summit Collection,2613,,,,106,,Active,,,http://www.redfin.com/NC/Raleigh/Longleaf-Estates-Summit-Collection/Landrum-II/home/145619346,NewHomeSource.com,Plan-41465166,N,Y,35.903439,-78.508817
New Construction Plan,,Single Family Residential,Ingleton II,Raleigh,NC,27616,281990,4,2.0,Longleaf Estates - Summit Collection,2632,,,,107,,Active,,,http://www.redfin.com/NC/Raleigh/Longleaf-Estates-Summit-Collection/Ingleton-II/home/145619345,NewHomeSource.com,Plan-41465167,N,Y,35.903439,-78.508817
New Construction Plan,,Single Family Residential,Hardwick II,Raleigh,NC,27616,266990,4,2.0,Longleaf Estates - Summit Collection,2359,,,,113,,Active,,,http://www.redfin.com/NC/Raleigh/Longleaf-Estates-Summit-Collection/Hardwick-II/home/145311648,NewHomeSource.com,Plan-41465165,N,Y,35.903439,-78.508817
New Construction Plan,,Single Family Residential,Fletcher II,Raleigh,NC,27616,257990,3,2.0,Longleaf Estates - Summit Collection,1937,,,,133,,Active,,,http://www.redfin.com/NC/Raleigh/Longleaf-Estates-Summit-Collection/Fletcher-II/home/145311649,NewHomeSource.com,Plan-41465164,N,Y,35.903439,-78.508817
New Construction Plan,,Single Family Residential,Clayton II,Raleigh,NC,27616,257990,4,2.0,Longleaf Estates - Summit Collection,1821,,,,142,,Active,,,http://www.redfin.com/NC/Raleigh/Longleaf-Estates-Summit-Collection/Clayton-II/home/145619347,NewHomeSource.com,Plan-41465163,N,Y,35.903439,-78.508817
New Construction Plan,,Single Family Residential,Brunswick - Level Homes,Raleigh,NC,27616,348900,3,2.5,"5401 North-Raleigh, NC",2299,,,,152,,Active,,,http://www.redfin.com/NC/Raleigh/5401-North-Raleigh-NC/Brunswick-Level-Homes/home/113147439,NewHomeSource.com,Plan-41366882,N,Y,35.8645753,-78.5416619
New Construction Plan,,Single Family Residential,Belmont,Durham,NC,27703,324990,4,2.5,Andrews Chapel,2301,,,,141,,Active,,,http://www.redfin.com/NC/Durham/Andrews-Chapel/Belmont/home/144113667,NewHomeSource.com,Plan-41435621,N,Y,35.923699,-78.779971
New Construction Plan,,Single Family Residential,Baldwin,Morrisville,NC,27560,261990,3,2.5,Trilogy at Brier Creek: Hanover,1932,,,,136,,Active,,,http://www.redfin.com/NC/Morrisville/Trilogy-at-Brier-Creek-Hanover/Baldwin/home/113890634,NewHomeSource.com,Plan-41391170,N,Y,35.915635,-78.812061
New Construction Plan,,Single Family Residential,Benjamin,Raleigh,NC,27603,290900,3,3.0,Blalocks Glen,2380,,,,122,,Active,,,http://www.redfin.com/NC/Raleigh/Blalocks-Glen/Benjamin/home/143918926,NewHomeSource.com,Plan-41435130,N,Y,35.5941455,-78.6587259
New Construction Plan,,Single Family Residential,Chastain,Morrisville,NC,27560,266990,3,2.5,Trilogy at Brier Creek: Hanover,1927,,,,139,,Active,,,http://www.redfin.com/NC/Morrisville/Trilogy-at-Brier-Creek-Hanover/Chastain/home/113890635,NewHomeSource.com,Plan-41391169,N,Y,35.915635,-78.812061
New Construction Plan,,Single Family Residential,Oxford,Morrisville,NC,27560,262990,3,2.5,Trilogy at Brier Creek: Hanover,1896,,,,139,,Active,,,http://www.redfin.com/NC/Morrisville/Trilogy-at-Brier-Creek-Hanover/Oxford/home/113551330,NewHomeSource.com,Plan-41391168,N,Y,35.915635,-78.812061
New Construction Plan,,Single Family Residential,Lenox,Morrisville,NC,27560,259990,3,2.5,Trilogy at Brier Creek: Hanover,1832,,,,142,,Active,,,http://www.redfin.com/NC/Morrisville/Trilogy-at-Brier-Creek-Hanover/Lenox/home/113890636,NewHomeSource.com,Plan-41391167,N,Y,35.915635,-78.812061
New Construction Plan,,Single Family Residential,Wilmington,Raleigh,NC,27616,384900,3,2.5,5401 North,2472,,,,156,,Active,,,http://www.redfin.com/NC/Raleigh/5401-North/Wilmington/home/144126401,NewHomeSource.com,Plan-41443521,N,Y,35.864116,-78.546468
New Construction Plan,,Single Family Residential,Pressley II,Apex,NC,27539,395990,4,3.0,Blaney Farms,2865,,,,138,,Active,,,http://www.redfin.com/NC/Apex/Blaney-Farms/Pressley-II/home/102540561,NewHomeSource.com,Plan-41173945,N,Y,35.67526,-78.72154
New Construction Plan,,Single Family Residential,Salisbury,Raleigh,NC,27606,320990,3,2.5,Pipers Crossing,2296,,,,140,,Active,,,http://www.redfin.com/NC/Raleigh/Pipers-Crossing/Salisbury/home/144539987,NewHomeSource.com,Plan-41461085,N,Y,35.74129,-78.741815
New Construction Plan,,Single Family Residential,New Port - Level Homes,Raleigh,NC,27616,367900,4,3.5,"5401 North-Raleigh, NC",2291,,,,161,,Active,,,http://www.redfin.com/NC/Raleigh/5401-North-Raleigh-NC/New-Port-Level-Homes/home/113147460,NewHomeSource.com,Plan-41366795,N,Y,35.8645753,-78.5416619
New Construction Plan,,Single Family Residential,Watauga,Durham,NC,27703,349990,3,2.5,Andrews Chapel,2927,,,,120,,Active,,,http://www.redfin.com/NC/Durham/Andrews-Chapel/Watauga/home/143864611,NewHomeSource.com,Plan-41434554,N,Y,35.924151,-78.7801
New Construction Plan,,Single Family Residential,Crabtree,Durham,NC,27703,340990,3,2.0,Andrews Chapel,2559,,,,133,,Active,,,http://www.redfin.com/NC/Durham/Andrews-Chapel/Crabtree/home/143864612,NewHomeSource.com,Plan-41434553,N,Y,35.924151,-78.7801
New Construction Plan,,Single Family Residential,Brittain,Durham,NC,27703,359990,4,3.5,Andrews Chapel,3203,,,,112,,Active,,,http://www.redfin.com/NC/Durham/Andrews-Chapel/Brittain/home/144113669,NewHomeSource.com,Plan-41434551,N,Y,35.923699,-78.779971
New Construction Plan,,Single Family Residential,Newport,Raleigh,NC,27616,377900,4,3.5,5401 North,2291,,,,165,,Active,,,http://www.redfin.com/NC/Raleigh/5401-North/Newport/home/112346461,NewHomeSource.com,Plan-41223851,N,Y,35.8621156,-78.5387668
New Construction Plan,,Single Family Residential,New Bern - Level Homes,Raleigh,NC,27616,337900,3,2.5,"5401 North-Raleigh, NC",1857,,,,182,,Active,,,http://www.redfin.com/NC/Raleigh/5401-North-Raleigh-NC/New-Bern-Level-Homes/home/113147461,NewHomeSource.com,Plan-41366791,N,Y,35.8645753,-78.5416619
New Construction Plan,,Single Family Residential,New Bern,Raleigh,NC,27616,347900,3,2.5,5401 North,2027,,,,172,,Active,,,http://www.redfin.com/NC/Raleigh/5401-North/New-Bern/home/112931450,NewHomeSource.com,Plan-41223850,N,Y,35.8621156,-78.5387668
New Construction Plan,,Single Family Residential,Carpenter,Raleigh,NC,27603,315900,4,3.0,Blalocks Glen,2911,,,,109,,Active,,,http://www.redfin.com/NC/Raleigh/Blalocks-Glen/Carpenter/home/102540417,NewHomeSource.com,Plan-41430839,N,Y,35.5941328,-78.6587113
New Construction Plan,,Single Family Residential,Croatan,Raleigh,NC,27616,387900,4,3.0,5401 North,2472,,,,157,,Active,,,http://www.redfin.com/NC/Raleigh/5401-North/Croatan/home/113056219,NewHomeSource.com,Plan-41223848,N,Y,35.8621156,-78.5387668
New Construction Plan,,Single Family Residential,Trawick,Raleigh,NC,27616,340800,3,2.0,Belmont,2754,,,,124,,Active,,,http://www.redfin.com/NC/Raleigh/Belmont/Trawick/home/109637939,NewHomeSource.com,Plan-41473887,N,Y,35.83491,-78.555336
New Construction Plan,,Single Family Residential,Oakwood,Raleigh,NC,27616,340000,4,2.5,Belmont,3203,,,,106,,Active,,,http://www.redfin.com/NC/Raleigh/Belmont/Oakwood/home/110008706,NewHomeSource.com,Plan-41473886,N,Y,35.83491,-78.555336
New Construction Plan,,Single Family Residential,Braxton,Raleigh,NC,27603,307900,4,2.5,Blalocks Glen,2935,,,,105,,Active,,,http://www.redfin.com/NC/Raleigh/Blalocks-Glen/Braxton/home/102540420,NewHomeSource.com,Plan-41430836,N,Y,35.5941328,-78.6587113
New Construction Plan,,Single Family Residential,Northwood,Raleigh,NC,27616,348800,4,2.5,Belmont,2969,,,,117,,Active,,,http://www.redfin.com/NC/Raleigh/Belmont/Northwood/home/110008707,NewHomeSource.com,Plan-41473885,N,Y,35.83491,-78.555336
New Construction Plan,,Single Family Residential,Brunswick,Raleigh,NC,27616,358900,3,2.5,5401 North,2299,,,,156,,Active,,,http://www.redfin.com/NC/Raleigh/5401-North/Brunswick/home/112931453,NewHomeSource.com,Plan-41223845,N,Y,35.8621156,-78.5387668
New Construction Plan,,Single Family Residential,McCauly,Raleigh,NC,27606,364990,4,3.0,Pipers Grove,2505,,,,146,,Active,,,http://www.redfin.com/NC/Raleigh/Pipers-Grove/McCauly/home/144721373,NewHomeSource.com,Plan-41461004,N,Y,35.741299,-78.742491
New Construction Plan,,Single Family Residential,Oakwood,Raleigh,NC,27603,297990,3,2.5,Cypress Meadow,2390,,,,125,,Active,,,http://www.redfin.com/NC/Raleigh/Cypress-Meadow/Oakwood/home/104395803,NewHomeSource.com,Plan-41219564,N,Y,35.6628868,-78.6979645
New Construction Plan,,Single Family Residential,Wilmington,Raleigh,NC,27616,374900,3,2.5,"5401 North-Raleigh, NC",2472,,,,152,,Active,,,http://www.redfin.com/NC/Raleigh/5401-North-Raleigh-NC/Wilmington/home/145111684,NewHomeSource.com,Plan-41484293,N,Y,35.8645753,-78.5416619
New Construction Plan,,Single Family Residential,Marlette II,Raleigh,NC,27616,355490,5,4.0,Longleaf Estates - Highland Collection,3484,,,,102,,Active,,,http://www.redfin.com/NC/Raleigh/Longleaf-Estates-Highland-Collection/Marlette-II/home/145619341,NewHomeSource.com,Plan-41469949,N,Y,35.903439,-78.508817
New Construction Plan,,Single Family Residential,Croatan - Level Homes,Raleigh,NC,27616,377900,4,3.0,"5401 North-Raleigh, NC",2472,,,,153,,Active,,,http://www.redfin.com/NC/Raleigh/5401-North-Raleigh-NC/Croatan-Level-Homes/home/113147430,NewHomeSource.com,Plan-41366909,N,Y,35.8645753,-78.5416619
New Construction Plan,,Single Family Residential,Hastings II,Raleigh,NC,27616,333490,4,3.0,Longleaf Estates - Highland Collection,3152,,,,106,,Active,,,http://www.redfin.com/NC/Raleigh/Longleaf-Estates-Highland-Collection/Hastings-II/home/145619342,NewHomeSource.com,Plan-41469947,N,Y,35.903439,-78.508817
New Construction Plan,,Single Family Residential,Pembroke II,Raleigh,NC,27616,344490,4,4.0,Longleaf Estates - Highland Collection,3398,,,,101,,Active,,,http://www.redfin.com/NC/Raleigh/Longleaf-Estates-Highland-Collection/Pembroke-II/home/145311643,NewHomeSource.com,Plan-41469948,N,Y,35.903439,-78.508817
New Construction Plan,,Single Family Residential,Lexington,Raleigh,NC,27603,385990,3,2.0,Banks Pointe,2018,,,,191,,Active,,,http://www.redfin.com/NC/Raleigh/Banks-Pointe/Lexington/home/143814901,NewHomeSource.com,Plan-41449576,N,Y,35.64258,-78.697904
New Construction Plan,,Single Family Residential,Lenox II,Raleigh,NC,27616,314490,4,3.0,Longleaf Estates - Highland Collection,2550,,,,123,,Active,,,http://www.redfin.com/NC/Raleigh/Longleaf-Estates-Highland-Collection/Lenox-II/home/145619343,NewHomeSource.com,Plan-41469946,N,Y,35.903439,-78.508817
New Construction Plan,,Single Family Residential,Stratford,Raleigh,NC,27603,322990,5,3.0,Cypress Meadow,3192,,,,101,,Active,,,http://www.redfin.com/NC/Raleigh/Cypress-Meadow/Stratford/home/104395807,NewHomeSource.com,Plan-41165721,N,Y,35.6628868,-78.6979645
New Construction Plan,,Single Family Residential,Concord,Raleigh,NC,27603,277990,3,2.5,Cypress Meadow,2066,,,,135,,Active,,,http://www.redfin.com/NC/Raleigh/Cypress-Meadow/Concord/home/104395806,NewHomeSource.com,Plan-41165722,N,Y,35.6628868,-78.6979645
New Construction Plan,,Single Family Residential,Somerset,Raleigh,NC,27603,313990,4,3.0,Cypress Meadow,2883,,,,109,,Active,,,http://www.redfin.com/NC/Raleigh/Cypress-Meadow/Somerset/home/104395805,NewHomeSource.com,Plan-41165723,N,Y,35.6628868,-78.6979645
New Construction Plan,,Single Family Residential,Watson I,Raleigh,NC,27616,313990,3,2.5,5401 North,2060,,,,152,,Active,,,http://www.redfin.com/NC/Raleigh/5401-North/Watson-I/home/145333440,NewHomeSource.com,Plan-41417860,N,Y,35.8647,-78.5421
New Construction Plan,,Single Family Residential,Bishop I,Raleigh,NC,27616,325990,3,2.5,5401 North,2388,,,,137,,Active,,,http://www.redfin.com/NC/Raleigh/5401-North/Bishop-I/home/145227503,NewHomeSource.com,Plan-41417863,N,Y,35.8647,-78.5421
New Construction Plan,,Single Family Residential,Grayson,Raleigh,NC,27603,374990,4,2.5,Banks Pointe,2799,,,,134,,Active,,,http://www.redfin.com/NC/Raleigh/Banks-Pointe/Grayson/home/143814900,NewHomeSource.com,Plan-41449575,N,Y,35.64258,-78.697904
New Construction Plan,,Single Family Residential,Chester II,Raleigh,NC,27616,310490,3,3.0,Longleaf Estates - Highland Collection,2464,,,,126,,Active,,,http://www.redfin.com/NC/Raleigh/Longleaf-Estates-Highland-Collection/Chester-II/home/145619344,NewHomeSource.com,Plan-41469945,N,Y,35.903439,-78.508817
New Construction Plan,,Single Family Residential,Lexington,Raleigh,NC,27603,313990,4,2.5,Cypress Meadow,2853,,,,110,,Active,,,http://www.redfin.com/NC/Raleigh/Cypress-Meadow/Lexington/home/104395810,NewHomeSource.com,Plan-41165719,N,Y,35.6628868,-78.6979645
New Construction Plan,,Single Family Residential,Taylor II,Raleigh,NC,27616,306990,3,2.5,5401 North,1844,,,,166,,Active,,,http://www.redfin.com/NC/Raleigh/5401-North/Taylor-II/home/145227504,NewHomeSource.com,Plan-41417859,N,Y,35.8647,-78.5421
New Construction Plan,,Single Family Residential,Buxton - Level Homes,Raleigh,NC,27616,398900,4,3.5,"5401 North-Raleigh, NC",2721,,,,147,,Active,,,http://www.redfin.com/NC/Raleigh/5401-North-Raleigh-NC/Buxton-Level-Homes/home/113147436,NewHomeSource.com,Plan-41366899,N,Y,35.8645753,-78.5416619
New Construction Plan,,Single Family Residential,Hamilton,Raleigh,NC,27603,291990,3,2.5,Cypress Meadow,2336,,,,125,,Active,,,http://www.redfin.com/NC/Raleigh/Cypress-Meadow/Hamilton/home/104395811,NewHomeSource.com,Plan-41165717,N,Y,35.6628868,-78.6979645
New Construction Plan,,Single Family Residential,Taylor I,Raleigh,NC,27616,306990,3,2.5,5401 North,1762,,,,174,,Active,,,http://www.redfin.com/NC/Raleigh/5401-North/Taylor-I/home/145333441,NewHomeSource.com,Plan-41417857,N,Y,35.8647,-78.5421
New Construction Plan,,Single Family Residential,McCoury I,Raleigh,NC,27616,295990,3,2.5,5401 North,1735,,,,171,,Active,,,http://www.redfin.com/NC/Raleigh/5401-North/McCoury-I/home/145227505,NewHomeSource.com,Plan-41417856,N,Y,35.8647,-78.5421
New Construction Plan,,Single Family Residential,Tryon II,Raleigh,NC,27616,291990,4,2.0,Longleaf Estates - Summit Collection,3020,,,,97,,Active,,,http://www.redfin.com/NC/Raleigh/Longleaf-Estates-Summit-Collection/Tryon-II/home/145311647,NewHomeSource.com,Plan-31465168,N,Y,35.903439,-78.508817
New Construction Plan,,Single Family Residential,Azalea,Raleigh,NC,27616,286037,3,2.0,Bryson Village,1906,,,,150,,Active,,,http://www.redfin.com/NC/Raleigh/Bryson-Village/Azalea/home/104236419,DR Horton,Plan-236714,N,Y,35.8404564,-78.5086231
New Construction Plan,,Single Family Residential,Fleetwood,Raleigh,NC,27616,283490,4,3.0,Bryson Village,2558,,,,111,,Active,,,http://www.redfin.com/NC/Raleigh/Bryson-Village/Fleetwood/home/104236417,DR Horton,Plan-236717,N,Y,35.8404564,-78.5086231
New Construction Plan,,Single Family Residential,Hampshire,Raleigh,NC,27616,305490,4,3.0,Bryson Village,3113,,,,98,,Active,,,http://www.redfin.com/NC/Raleigh/Bryson-Village/Hampshire/home/104236416,DR Horton,Plan-236718,N,Y,35.8404564,-78.5086231
New Construction Plan,,Single Family Residential,London,Raleigh,NC,27616,292490,4,4.0,Bryson Village,2774,,,,105,,Active,,,http://www.redfin.com/NC/Raleigh/Bryson-Village/London/home/104236415,DR Horton,Plan-236720,N,Y,35.8404564,-78.5086231
New Construction Plan,,Single Family Residential,Verwood,Raleigh,NC,27616,265490,3,2.5,Bryson Village,2310,,,,115,,Active,,,http://www.redfin.com/NC/Raleigh/Bryson-Village/Verwood/home/104236413,DR Horton,Plan-236724,N,Y,35.8404564,-78.5086231
